$GPGGA,172416.195,4837.124,N,00201.660,W,1,12,1.0,0.0,M,0.0,M,,*7A
$GPGSA,A,3,01,02,03,04,05,06,07,08,09,10,11,12,1.0,1.0,1.0*30
$GPRMC,172416.195,A,4837.124,N,00201.660,W,038.9,357.0,260618,000.0,W*66
$GPGGA,172417.195,4837.134,N,00201.660,W,1,12,1.0,0.0,M,0.0,M,,*7A
$GPGSA,A,3,01,02,03,04,05,06,07,08,09,10,11,12,1.0,1.0,1.0*30
$GPRMC,172417.195,A,4837.134,N,00201.660,W,038.9,357.0,260618,000.0,W*66
$GPGGA,172418.195,4837.145,N,00201.661,W,1,12,1.0,0.0,M,0.0,M,,*72
$GPGSA,A,3,01,02,03,04,05,06,07,08,09,10,11,12,1.0,1.0,1.0*30
$GPRMC,172418.195,A,4837.145,N,00201.661,W,038.9,357.0,260618,000.0,W*6E
$GPGGA,172419.195,4837.156,N,00201.662,W,1,12,1.0,0.0,M,0.0,M,,*72
$GPGSA,A,3,01,02,03,04,05,06,07,08,09,10,11,12,1.0,1.0,1.0*30
$GPRMC,172419.195,A,4837.156,N,00201.662,W,038.9,357.0,260618,000.0,W*6E
$GPGGA,172420.195,4837.167,N,00201.662,W,1,12,1.0,0.0,M,0.0,M,,*7A
$GPGSA,A,3,01,02,03,04,05,06,07,08,09,10,11,12,1.0,1.0,1.0*30
$GPRMC,172420.195,A,4837.167,N,00201.662,W,038.9,357.0,260618,000.0,W*66
$GPGGA,172421.195,4837.177,N,00201.663,W,1,12,1.0,0.0,M,0.0,M,,*7B
$GPGSA,A,3,01,02,03,04,05,06,07,08,09,10,11,12,1.0,1.0,1.0*30
$GPRMC,172421.195,A,4837.177,N,00201.663,W,038.9,357.0,260618,000.0,W*67
$GPGGA,172422.195,4837.188,N,00201.663,W,1,12,1.0,0.0,M,0.0,M,,*78
$GPGSA,A,3,01,02,03,04,05,06,07,08,09,10,11,12,1.0,1.0,1.0*30
$GPRMC,172422.195,A,4837.188,N,00201.663,W,038.9,357.0,260618,000.0,W*64
$GPGGA,172423.195,4837.199,N,00201.664,W,1,12,1.0,0.0,M,0.0,M,,*7E
$GPGSA,A,3,01,02,03,04,05,06,07,08,09,10,11,12,1.0,1.0,1.0*30
$GPRMC,172423.195,A,4837.199,N,00201.664,W,038.9,357.0,260618,000.0,W*62
$GPGGA,172424.195,4837.210,N,00201.664,W,1,12,1.0,0.0,M,0.0,M,,*7B
$GPGSA,A,3,01,02,03,04,05,06,07,08,09,10,11,12,1.0,1.0,1.0*30
$GPRMC,172424.195,A,4837.210,N,00201.664,W,038.9,357.0,260618,000.0,W*67
$GPGGA,172425.195,4837.221,N,00201.665,W,1,12,1.0,0.0,M,0.0,M,,*79
$GPGSA,A,3,01,02,03,04,05,06,07,08,09,10,11,12,1.0,1.0,1.0*30
$GPRMC,172425.195,A,4837.221,N,00201.665,W,038.9,357.0,260618,000.0,W*65
$GPGGA,172426.195,4837.231,N,00201.665,W,1,12,1.0,0.0,M,0.0,M,,*7B
$GPGSA,A,3,01,02,03,04,05,06,07,08,09,10,11,12,1.0,1.0,1.0*30
$GPRMC,172426.195,A,4837.231,N,00201.665,W,038.9,357.0,260618,000.0,W*67
$GPGGA,172427.195,4837.242,N,00201.666,W,1,12,1.0,0.0,M,0.0,M,,*7D
$GPGSA,A,3,01,02,03,04,05,06,07,08,09,10,11,12,1.0,1.0,1.0*30
$GPRMC,172427.195,A,4837.242,N,00201.666,W,038.9,357.0,260618,000.0,W*61
$GPGGA,172428.195,4837.253,N,00201.667,W,1,12,1.0,0.0,M,0.0,M,,*73
$GPGSA,A,3,01,02,03,04,05,06,07,08,09,10,11,12,1.0,1.0,1.0*30
$GPRMC,172428.195,A,4837.253,N,00201.667,W,038.9,357.0,260618,000.0,W*6F
$GPGGA,172429.195,4837.264,N,00201.667,W,1,12,1.0,0.0,M,0.0,M,,*76
$GPGSA,A,3,01,02,03,04,05,06,07,08,09,10,11,12,1.0,1.0,1.0*30
$GPRMC,172429.195,A,4837.264,N,00201.667,W,038.9,357.0,260618,000.0,W*6A
$GPGGA,172430.195,4837.275,N,00201.668,W,1,12,1.0,0.0,M,0.0,M,,*71
$GPGSA,A,3,01,02,03,04,05,06,07,08,09,10,11,12,1.0,1.0,1.0*30
$GPRMC,172430.195,A,4837.275,N,00201.668,W,038.9,357.0,260618,000.0,W*6D
$GPGGA,172431.195,4837.285,N,00201.668,W,1,12,1.0,0.0,M,0.0,M,,*7F
$GPGSA,A,3,01,02,03,04,05,06,07,08,09,10,11,12,1.0,1.0,1.0*30
$GPRMC,172431.195,A,4837.285,N,00201.668,W,038.9,357.0,260618,000.0,W*63
$GPGGA,172432.195,4837.296,N,00201.669,W,1,12,1.0,0.0,M,0.0,M,,*7F
$GPGSA,A,3,01,02,03,04,05,06,07,08,09,10,11,12,1.0,1.0,1.0*30
$GPRMC,172432.195,A,4837.296,N,00201.669,W,038.9,357.0,260618,000.0,W*63
$GPGGA,172433.195,4837.307,N,00201.669,W,1,12,1.0,0.0,M,0.0,M,,*77
$GPGSA,A,3,01,02,03,04,05,06,07,08,09,10,11,12,1.0,1.0,1.0*30
$GPRMC,172433.195,A,4837.307,N,00201.669,W,038.9,357.0,260618,000.0,W*6B
$GPGGA,172434.195,4837.318,N,00201.670,W,1,12,1.0,0.0,M,0.0,M,,*76
$GPGSA,A,3,01,02,03,04,05,06,07,08,09,10,11,12,1.0,1.0,1.0*30
$GPRMC,172434.195,A,4837.318,N,00201.670,W,038.9,357.0,260618,000.0,W*6A
$GPGGA,172435.195,4837.328,N,00201.671,W,1,12,1.0,0.0,M,0.0,M,,*75
$GPGSA,A,3,01,02,03,04,05,06,07,08,09,10,11,12,1.0,1.0,1.0*30
$GPRMC,172435.195,A,4837.328,N,00201.671,W,038.9,357.0,260618,000.0,W*69
$GPGGA,172436.195,4837.339,N,00201.671,W,1,12,1.0,0.0,M,0.0,M,,*76
$GPGSA,A,3,01,02,03,04,05,06,07,08,09,10,11,12,1.0,1.0,1.0*30
$GPRMC,172436.195,A,4837.339,N,00201.671,W,038.9,357.0,260618,000.0,W*6A
$GPGGA,172437.195,4837.350,N,00201.672,W,1,12,1.0,0.0,M,0.0,M,,*7B
$GPGSA,A,3,01,02,03,04,05,06,07,08,09,10,11,12,1.0,1.0,1.0*30
$GPRMC,172437.195,A,4837.350,N,00201.672,W,038.9,357.0,260618,000.0,W*67
$GPGGA,172438.195,4837.361,N,00201.672,W,1,12,1.0,0.0,M,0.0,M,,*76
$GPGSA,A,3,01,02,03,04,05,06,07,08,09,10,11,12,1.0,1.0,1.0*30
$GPRMC,172438.195,A,4837.361,N,00201.672,W,038.9,357.0,260618,000.0,W*6A
$GPGGA,172439.195,4837.372,N,00201.673,W,1,12,1.0,0.0,M,0.0,M,,*74
$GPGSA,A,3,01,02,03,04,05,06,07,08,09,10,11,12,1.0,1.0,1.0*30
$GPRMC,172439.195,A,4837.372,N,00201.673,W,038.9,357.0,260618,000.0,W*68
$GPGGA,172440.195,4837.382,N,00201.673,W,1,12,1.0,0.0,M,0.0,M,,*75
$GPGSA,A,3,01,02,03,04,05,06,07,08,09,10,11,12,1.0,1.0,1.0*30
$GPRMC,172440.195,A,4837.382,N,00201.673,W,038.9,357.0,260618,000.0,W*69
$GPGGA,172441.195,4837.393,N,00201.674,W,1,12,1.0,0.0,M,0.0,M,,*73
$GPGSA,A,3,01,02,03,04,05,06,07,08,09,10,11,12,1.0,1.0,1.0*30
$GPRMC,172441.195,A,4837.393,N,00201.674,W,038.9,357.0,260618,000.0,W*6F
$GPGGA,172442.195,4837.404,N,00201.674,W,1,12,1.0,0.0,M,0.0,M,,*79
$GPGSA,A,3,01,02,03,04,05,06,07,08,09,10,11,12,1.0,1.0,1.0*30
$GPRMC,172442.195,A,4837.404,N,00201.674,W,038.9,357.0,260618,000.0,W*65
$GPGGA,172443.195,4837.415,N,00201.675,W,1,12,1.0,0.0,M,0.0,M,,*79
$GPGSA,A,3,01,02,03,04,05,06,07,08,09,10,11,12,1.0,1.0,1.0*30
$GPRMC,172443.195,A,4837.415,N,00201.675,W,038.9,357.0,260618,000.0,W*65
$GPGGA,172444.195,4837.426,N,00201.676,W,1,12,1.0,0.0,M,0.0,M,,*7D
$GPGSA,A,3,01,02,03,04,05,06,07,08,09,10,11,12,1.0,1.0,1.0*30
$GPRMC,172444.195,A,4837.426,N,00201.676,W,038.9,357.0,260618,000.0,W*61
$GPGGA,172445.195,4837.436,N,00201.676,W,1,12,1.0,0.0,M,0.0,M,,*7D
$GPGSA,A,3,01,02,03,04,05,06,07,08,09,10,11,12,1.0,1.0,1.0*30
$GPRMC,172445.195,A,4837.436,N,00201.676,W,038.9,357.0,260618,000.0,W*61
$GPGGA,172446.195,4837.447,N,00201.677,W,1,12,1.0,0.0,M,0.0,M,,*79
$GPGSA,A,3,01,02,03,04,05,06,07,08,09,10,11,12,1.0,1.0,1.0*30
$GPRMC,172446.195,A,4837.447,N,00201.677,W,038.9,357.0,260618,000.0,W*65
$GPGGA,172447.195,4837.458,N,00201.677,W,1,12,1.0,0.0,M,0.0,M,,*76
$GPGSA,A,3,01,02,03,04,05,06,07,08,09,10,11,12,1.0,1.0,1.0*30
$GPRMC,172447.195,A,4837.458,N,00201.677,W,038.9,357.0,260618,000.0,W*6A
$GPGGA,172448.195,4837.469,N,00201.678,W,1,12,1.0,0.0,M,0.0,M,,*74
$GPGSA,A,3,01,02,03,04,05,06,07,08,09,10,11,12,1.0,1.0,1.0*30
$GPRMC,172448.195,A,4837.469,N,00201.678,W,038.9,357.0,260618,000.0,W*68
$GPGGA,172449.195,4837.479,N,00201.678,W,1,12,1.0,0.0,M,0.0,M,,*74
$GPGSA,A,3,01,02,03,04,05,06,07,08,09,10,11,12,1.0,1.0,1.0*30
$GPRMC,172449.195,A,4837.479,N,00201.678,W,038.9,357.0,260618,000.0,W*68
$GPGGA,172450.195,4837.490,N,00201.679,W,1,12,1.0,0.0,M,0.0,M,,*7A
$GPGSA,A,3,01,02,03,04,05,06,07,08,09,10,11,12,1.0,1.0,1.0*30
$GPRMC,172450.195,A,4837.490,N,00201.679,W,038.9,357.0,260618,000.0,W*66
$GPGGA,172451.195,4837.501,N,00201.680,W,1,12,1.0,0.0,M,0.0,M,,*74
$GPGSA,A,3,01,02,03,04,05,06,07,08,09,10,11,12,1.0,1.0,1.0*30
$GPRMC,172451.195,A,4837.501,N,00201.680,W,038.9,357.0,260618,000.0,W*68
$GPGGA,172452.195,4837.512,N,00201.680,W,1,12,1.0,0.0,M,0.0,M,,*75
$GPGSA,A,3,01,02,03,04,05,06,07,08,09,10,11,12,1.0,1.0,1.0*30
$GPRMC,172452.195,A,4837.512,N,00201.680,W,038.9,329.0,260618,000.0,W*60
$GPGGA,172453.195,4837.522,N,00201.686,W,1,12,1.0,0.0,M,0.0,M,,*71
$GPGSA,A,3,01,02,03,04,05,06,07,08,09,10,11,12,1.0,1.0,1.0*30
$GPRMC,172453.195,A,4837.522,N,00201.686,W,038.9,329.0,260618,000.0,W*64
$GPGGA,172454.195,4837.532,N,00201.692,W,1,12,1.0,0.0,M,0.0,M,,*72
$GPGSA,A,3,01,02,03,04,05,06,07,08,09,10,11,12,1.0,1.0,1.0*30
$GPRMC,172454.195,A,4837.532,N,00201.692,W,038.9,329.0,260618,000.0,W*67
$GPGGA,172455.195,4837.542,N,00201.698,W,1,12,1.0,0.0,M,0.0,M,,*7E
$GPGSA,A,3,01,02,03,04,05,06,07,08,09,10,11,12,1.0,1.0,1.0*30
$GPRMC,172455.195,A,4837.542,N,00201.698,W,038.9,329.0,260618,000.0,W*6B
$GPGGA,172456.195,4837.552,N,00201.704,W,1,12,1.0,0.0,M,0.0,M,,*78
$GPGSA,A,3,01,02,03,04,05,06,07,08,09,10,11,12,1.0,1.0,1.0*30
$GPRMC,172456.195,A,4837.552,N,00201.704,W,038.9,329.0,260618,000.0,W*6D
$GPGGA,172457.195,4837.562,N,00201.710,W,1,12,1.0,0.0,M,0.0,M,,*7F
$GPGSA,A,3,01,02,03,04,05,06,07,08,09,10,11,12,1.0,1.0,1.0*30
$GPRMC,172457.195,A,4837.562,N,00201.710,W,038.9,329.0,260618,000.0,W*6A
$GPGGA,172458.195,4837.572,N,00201.716,W,1,12,1.0,0.0,M,0.0,M,,*77
$GPGSA,A,3,01,02,03,04,05,06,07,08,09,10,11,12,1.0,1.0,1.0*30
$GPRMC,172458.195,A,4837.572,N,00201.716,W,038.9,329.0,260618,000.0,W*62
$GPGGA,172459.195,4837.582,N,00201.722,W,1,12,1.0,0.0,M,0.0,M,,*7E
$GPGSA,A,3,01,02,03,04,05,06,07,08,09,10,11,12,1.0,1.0,1.0*30
$GPRMC,172459.195,A,4837.582,N,00201.722,W,038.9,329.0,260618,000.0,W*6B
$GPGGA,172500.195,4837.592,N,00201.728,W,1,12,1.0,0.0,M,0.0,M,,*78
$GPGSA,A,3,01,02,03,04,05,06,07,08,09,10,11,12,1.0,1.0,1.0*30
$GPRMC,172500.195,A,4837.592,N,00201.728,W,038.9,329.0,260618,000.0,W*6D
$GPGGA,172501.195,4837.602,N,00201.734,W,1,12,1.0,0.0,M,0.0,M,,*7E
$GPGSA,A,3,01,02,03,04,05,06,07,08,09,10,11,12,1.0,1.0,1.0*30
$GPRMC,172501.195,A,4837.602,N,00201.734,W,038.9,329.0,260618,000.0,W*6B
$GPGGA,172502.195,4837.612,N,00201.740,W,1,12,1.0,0.0,M,0.0,M,,*7F
$GPGSA,A,3,01,02,03,04,05,06,07,08,09,10,11,12,1.0,1.0,1.0*30
$GPRMC,172502.195,A,4837.612,N,00201.740,W,038.9,329.0,260618,000.0,W*6A
$GPGGA,172503.195,4837.622,N,00201.747,W,1,12,1.0,0.0,M,0.0,M,,*7A
$GPGSA,A,3,01,02,03,04,05,06,07,08,09,10,11,12,1.0,1.0,1.0*30
$GPRMC,172503.195,A,4837.622,N,00201.747,W,038.9,329.0,260618,000.0,W*6F
$GPGGA,172504.195,4837.632,N,00201.753,W,1,12,1.0,0.0,M,0.0,M,,*79
$GPGSA,A,3,01,02,03,04,05,06,07,08,09,10,11,12,1.0,1.0,1.0*30
$GPRMC,172504.195,A,4837.632,N,00201.753,W,038.9,329.0,260618,000.0,W*6C
$GPGGA,172505.195,4837.642,N,00201.759,W,1,12,1.0,0.0,M,0.0,M,,*75
$GPGSA,A,3,01,02,03,04,05,06,07,08,09,10,11,12,1.0,1.0,1.0*30
$GPRMC,172505.195,A,4837.642,N,00201.759,W,038.9,329.0,260618,000.0,W*60
$GPGGA,172506.195,4837.652,N,00201.765,W,1,12,1.0,0.0,M,0.0,M,,*78
$GPGSA,A,3,01,02,03,04,05,06,07,08,09,10,11,12,1.0,1.0,1.0*30
$GPRMC,172506.195,A,4837.652,N,00201.765,W,038.9,329.0,260618,000.0,W*6D
$GPGGA,172507.195,4837.662,N,00201.771,W,1,12,1.0,0.0,M,0.0,M,,*7F
$GPGSA,A,3,01,02,03,04,05,06,07,08,09,10,11,12,1.0,1.0,1.0*30
$GPRMC,172507.195,A,4837.662,N,00201.771,W,038.9,329.0,260618,000.0,W*6A
$GPGGA,172508.195,4837.672,N,00201.777,W,1,12,1.0,0.0,M,0.0,M,,*77
$GPGSA,A,3,01,02,03,04,05,06,07,08,09,10,11,12,1.0,1.0,1.0*30
$GPRMC,172508.195,A,4837.672,N,00201.777,W,038.9,329.0,260618,000.0,W*62
$GPGGA,172509.195,4837.682,N,00201.783,W,1,12,1.0,0.0,M,0.0,M,,*72
$GPGSA,A,3,01,02,03,04,05,06,07,08,09,10,11,12,1.0,1.0,1.0*30
$GPRMC,172509.195,A,4837.682,N,00201.783,W,038.9,329.0,260618,000.0,W*67
$GPGGA,172510.195,4837.692,N,00201.789,W,1,12,1.0,0.0,M,0.0,M,,*71
$GPGSA,A,3,01,02,03,04,05,06,07,08,09,10,11,12,1.0,1.0,1.0*30
$GPRMC,172510.195,A,4837.692,N,00201.789,W,038.9,329.0,260618,000.0,W*64
$GPGGA,172511.195,4837.702,N,00201.795,W,1,12,1.0,0.0,M,0.0,M,,*75
$GPGSA,A,3,01,02,03,04,05,06,07,08,09,10,11,12,1.0,1.0,1.0*30
$GPRMC,172511.195,A,4837.702,N,00201.795,W,038.9,329.0,260618,000.0,W*60
$GPGGA,172512.195,4837.712,N,00201.801,W,1,12,1.0,0.0,M,0.0,M,,*75
$GPGSA,A,3,01,02,03,04,05,06,07,08,09,10,11,12,1.0,1.0,1.0*30
$GPRMC,172512.195,A,4837.712,N,00201.801,W,038.9,329.0,260618,000.0,W*60
$GPGGA,172513.195,4837.722,N,00201.807,W,1,12,1.0,0.0,M,0.0,M,,*71
$GPGSA,A,3,01,02,03,04,05,06,07,08,09,10,11,12,1.0,1.0,1.0*30
$GPRMC,172513.195,A,4837.722,N,00201.807,W,038.9,329.0,260618,000.0,W*64
$GPGGA,172514.195,4837.732,N,00201.813,W,1,12,1.0,0.0,M,0.0,M,,*72
$GPGSA,A,3,01,02,03,04,05,06,07,08,09,10,11,12,1.0,1.0,1.0*30
$GPRMC,172514.195,A,4837.732,N,00201.813,W,038.9,329.0,260618,000.0,W*67
$GPGGA,172515.195,4837.742,N,00201.819,W,1,12,1.0,0.0,M,0.0,M,,*7E
$GPGSA,A,3,01,02,03,04,05,06,07,08,09,10,11,12,1.0,1.0,1.0*30
$GPRMC,172515.195,A,4837.742,N,00201.819,W,038.9,329.0,260618,000.0,W*6B
$GPGGA,172516.195,4837.752,N,00201.825,W,1,12,1.0,0.0,M,0.0,M,,*73
$GPGSA,A,3,01,02,03,04,05,06,07,08,09,10,11,12,1.0,1.0,1.0*30
$GPRMC,172516.195,A,4837.752,N,00201.825,W,038.9,329.0,260618,000.0,W*66
$GPGGA,172517.195,4837.762,N,00201.831,W,1,12,1.0,0.0,M,0.0,M,,*74
$GPGSA,A,3,01,02,03,04,05,06,07,08,09,10,11,12,1.0,1.0,1.0*30
$GPRMC,172517.195,A,4837.762,N,00201.831,W,038.9,329.0,260618,000.0,W*61
$GPGGA,172518.195,4837.773,N,00201.837,W,1,12,1.0,0.0,M,0.0,M,,*7D
$GPGSA,A,3,01,02,03,04,05,06,07,08,09,10,11,12,1.0,1.0,1.0*30
$GPRMC,172518.195,A,4837.773,N,00201.837,W,038.9,329.0,260618,000.0,W*68
$GPGGA,172519.195,4837.783,N,00201.843,W,1,12,1.0,0.0,M,0.0,M,,*70
$GPGSA,A,3,01,02,03,04,05,06,07,08,09,10,11,12,1.0,1.0,1.0*30
$GPRMC,172519.195,A,4837.783,N,00201.843,W,038.9,329.0,260618,000.0,W*65
$GPGGA,172520.195,4837.793,N,00201.849,W,1,12,1.0,0.0,M,0.0,M,,*71
$GPGSA,A,3,01,02,03,04,05,06,07,08,09,10,11,12,1.0,1.0,1.0*30
$GPRMC,172520.195,A,4837.793,N,00201.849,W,038.9,329.0,260618,000.0,W*64
$GPGGA,172521.195,4837.803,N,00201.855,W,1,12,1.0,0.0,M,0.0,M,,*7B
$GPGSA,A,3,01,02,03,04,05,06,07,08,09,10,11,12,1.0,1.0,1.0*30
$GPRMC,172521.195,A,4837.803,N,00201.855,W,038.9,329.0,260618,000.0,W*6E
$GPGGA,172522.195,4837.813,N,00201.861,W,1,12,1.0,0.0,M,0.0,M,,*7E
$GPGSA,A,3,01,02,03,04,05,06,07,08,09,10,11,12,1.0,1.0,1.0*30
$GPRMC,172522.195,A,4837.813,N,00201.861,W,038.9,329.0,260618,000.0,W*6B
$GPGGA,172523.195,4837.823,N,00201.867,W,1,12,1.0,0.0,M,0.0,M,,*7A
$GPGSA,A,3,01,02,03,04,05,06,07,08,09,10,11,12,1.0,1.0,1.0*30
$GPRMC,172523.195,A,4837.823,N,00201.867,W,038.9,329.0,260618,000.0,W*6F
$GPGGA,172524.195,4837.833,N,00201.873,W,1,12,1.0,0.0,M,0.0,M,,*79
$GPGSA,A,3,01,02,03,04,05,06,07,08,09,10,11,12,1.0,1.0,1.0*30
$GPRMC,172524.195,A,4837.833,N,00201.873,W,038.9,329.0,260618,000.0,W*6C
$GPGGA,172525.195,4837.843,N,00201.879,W,1,12,1.0,0.0,M,0.0,M,,*75
$GPGSA,A,3,01,02,03,04,05,06,07,08,09,10,11,12,1.0,1.0,1.0*30
$GPRMC,172525.195,A,4837.843,N,00201.879,W,038.9,329.0,260618,000.0,W*60
$GPGGA,172526.195,4837.853,N,00201.885,W,1,12,1.0,0.0,M,0.0,M,,*74
$GPGSA,A,3,01,02,03,04,05,06,07,08,09,10,11,12,1.0,1.0,1.0*30
$GPRMC,172526.195,A,4837.853,N,00201.885,W,038.9,329.0,260618,000.0,W*61
$GPGGA,172527.195,4837.863,N,00201.891,W,1,12,1.0,0.0,M,0.0,M,,*73
$GPGSA,A,3,01,02,03,04,05,06,07,08,09,10,11,12,1.0,1.0,1.0*30
$GPRMC,172527.195,A,4837.863,N,00201.891,W,038.9,329.0,260618,000.0,W*66
$GPGGA,172528.195,4837.873,N,00201.897,W,1,12,1.0,0.0,M,0.0,M,,*7B
$GPGSA,A,3,01,02,03,04,05,06,07,08,09,10,11,12,1.0,1.0,1.0*30
$GPRMC,172528.195,A,4837.873,N,00201.897,W,038.9,329.0,260618,000.0,W*6E
$GPGGA,172529.195,4837.883,N,00201.904,W,1,12,1.0,0.0,M,0.0,M,,*7E
$GPGSA,A,3,01,02,03,04,05,06,07,08,09,10,11,12,1.0,1.0,1.0*30
$GPRMC,172529.195,A,4837.883,N,00201.904,W,038.9,329.0,260618,000.0,W*6B
$GPGGA,172530.195,4837.893,N,00201.910,W,1,12,1.0,0.0,M,0.0,M,,*72
$GPGSA,A,3,01,02,03,04,05,06,07,08,09,10,11,12,1.0,1.0,1.0*30
$GPRMC,172530.195,A,4837.893,N,00201.910,W,038.9,329.0,260618,000.0,W*67
$GPGGA,172531.195,4837.903,N,00201.916,W,1,12,1.0,0.0,M,0.0,M,,*7D
$GPGSA,A,3,01,02,03,04,05,06,07,08,09,10,11,12,1.0,1.0,1.0*30
$GPRMC,172531.195,A,4837.903,N,00201.916,W,038.9,329.0,260618,000.0,W*68
$GPGGA,172532.195,4837.913,N,00201.922,W,1,12,1.0,0.0,M,0.0,M,,*78
$GPGSA,A,3,01,02,03,04,05,06,07,08,09,10,11,12,1.0,1.0,1.0*30
$GPRMC,172532.195,A,4837.913,N,00201.922,W,038.9,329.0,260618,000.0,W*6D
$GPGGA,172533.195,4837.923,N,00201.928,W,1,12,1.0,0.0,M,0.0,M,,*70
$GPGSA,A,3,01,02,03,04,05,06,07,08,09,10,11,12,1.0,1.0,1.0*30
$GPRMC,172533.195,A,4837.923,N,00201.928,W,038.9,329.0,260618,000.0,W*65
$GPGGA,172534.195,4837.933,N,00201.934,W,1,12,1.0,0.0,M,0.0,M,,*7B
$GPGSA,A,3,01,02,03,04,05,06,07,08,09,10,11,12,1.0,1.0,1.0*30
$GPRMC,172534.195,A,4837.933,N,00201.934,W,038.9,329.0,260618,000.0,W*6E
$GPGGA,172535.195,4837.943,N,00201.940,W,1,12,1.0,0.0,M,0.0,M,,*7E
$GPGSA,A,3,01,02,03,04,05,06,07,08,09,10,11,12,1.0,1.0,1.0*30
$GPRMC,172535.195,A,4837.943,N,00201.940,W,038.9,329.0,260618,000.0,W*6B
$GPGGA,172536.195,4837.953,N,00201.946,W,1,12,1.0,0.0,M,0.0,M,,*7A
$GPGSA,A,3,01,02,03,04,05,06,07,08,09,10,11,12,1.0,1.0,1.0*30
$GPRMC,172536.195,A,4837.953,N,00201.946,W,038.9,329.0,260618,000.0,W*6F
$GPGGA,172537.195,4837.963,N,00201.952,W,1,12,1.0,0.0,M,0.0,M,,*7D
$GPGSA,A,3,01,02,03,04,05,06,07,08,09,10,11,12,1.0,1.0,1.0*30
$GPRMC,172537.195,A,4837.963,N,00201.952,W,038.9,329.0,260618,000.0,W*68
$GPGGA,172538.195,4837.973,N,00201.958,W,1,12,1.0,0.0,M,0.0,M,,*79
$GPGSA,A,3,01,02,03,04,05,06,07,08,09,10,11,12,1.0,1.0,1.0*30
$GPRMC,172538.195,A,4837.973,N,00201.958,W,038.9,329.0,260618,000.0,W*6C
$GPGGA,172539.195,4837.983,N,00201.964,W,1,12,1.0,0.0,M,0.0,M,,*78
$GPGSA,A,3,01,02,03,04,05,06,07,08,09,10,11,12,1.0,1.0,1.0*30
$GPRMC,172539.195,A,4837.983,N,00201.964,W,038.9,329.0,260618,000.0,W*6D
$GPGGA,172540.195,4837.993,N,00201.970,W,1,12,1.0,0.0,M,0.0,M,,*72
$GPGSA,A,3,01,02,03,04,05,06,07,08,09,10,11,12,1.0,1.0,1.0*30
$GPRMC,172540.195,A,4837.993,N,00201.970,W,038.9,329.0,260618,000.0,W*67
$GPGGA,172541.195,4838.003,N,00201.976,W,1,12,1.0,0.0,M,0.0,M,,*7A
$GPGSA,A,3,01,02,03,04,05,06,07,08,09,10,11,12,1.0,1.0,1.0*30
$GPRMC,172541.195,A,4838.003,N,00201.976,W,038.9,329.0,260618,000.0,W*6F
$GPGGA,172542.195,4838.013,N,00201.982,W,1,12,1.0,0.0,M,0.0,M,,*73
$GPGSA,A,3,01,02,03,04,05,06,07,08,09,10,11,12,1.0,1.0,1.0*30
$GPRMC,172542.195,A,4838.013,N,00201.982,W,038.9,329.0,260618,000.0,W*66
$GPGGA,172543.195,4838.023,N,00201.988,W,1,12,1.0,0.0,M,0.0,M,,*7B
$GPGSA,A,3,01,02,03,04,05,06,07,08,09,10,11,12,1.0,1.0,1.0*30
$GPRMC,172543.195,A,4838.023,N,00201.988,W,038.9,329.0,260618,000.0,W*6E
$GPGGA,172544.195,4838.033,N,00201.994,W,1,12,1.0,0.0,M,0.0,M,,*70
$GPGSA,A,3,01,02,03,04,05,06,07,08,09,10,11,12,1.0,1.0,1.0*30
$GPRMC,172544.195,A,4838.033,N,00201.994,W,038.9,329.0,260618,000.0,W*65
$GPGGA,172545.195,4838.043,N,00202.000,W,1,12,1.0,0.0,M,0.0,M,,*71
$GPGSA,A,3,01,02,03,04,05,06,07,08,09,10,11,12,1.0,1.0,1.0*30
$GPRMC,172545.195,A,4838.043,N,00202.000,W,038.9,329.0,260618,000.0,W*64
$GPGGA,172546.195,4838.053,N,00202.006,W,1,12,1.0,0.0,M,0.0,M,,*75
$GPGSA,A,3,01,02,03,04,05,06,07,08,09,10,11,12,1.0,1.0,1.0*30
$GPRMC,172546.195,A,4838.053,N,00202.006,W,038.9,329.0,260618,000.0,W*60
$GPGGA,172547.195,4838.063,N,00202.012,W,1,12,1.0,0.0,M,0.0,M,,*72
$GPGSA,A,3,01,02,03,04,05,06,07,08,09,10,11,12,1.0,1.0,1.0*30
$GPRMC,172547.195,A,4838.063,N,00202.012,W,038.9,329.0,260618,000.0,W*67
$GPGGA,172548.195,4838.073,N,00202.018,W,1,12,1.0,0.0,M,0.0,M,,*76
$GPGSA,A,3,01,02,03,04,05,06,07,08,09,10,11,12,1.0,1.0,1.0*30
$GPRMC,172548.195,A,4838.073,N,00202.018,W,038.9,329.0,260618,000.0,W*63
$GPGGA,172549.195,4838.083,N,00202.024,W,1,12,1.0,0.0,M,0.0,M,,*77
$GPGSA,A,3,01,02,03,04,05,06,07,08,09,10,11,12,1.0,1.0,1.0*30
$GPRMC,172549.195,A,4838.083,N,00202.024,W,038.9,329.0,260618,000.0,W*62
$GPGGA,172550.195,4838.093,N,00202.030,W,1,12,1.0,0.0,M,0.0,M,,*7B
$GPGSA,A,3,01,02,03,04,05,06,07,08,09,10,11,12,1.0,1.0,1.0*30
$GPRMC,172550.195,A,4838.093,N,00202.030,W,038.9,329.0,260618,000.0,W*6E
$GPGGA,172551.195,4838.103,N,00202.036,W,1,12,1.0,0.0,M,0.0,M,,*74
$GPGSA,A,3,01,02,03,04,05,06,07,08,09,10,11,12,1.0,1.0,1.0*30
$GPRMC,172551.195,A,4838.103,N,00202.036,W,038.9,329.0,260618,000.0,W*61
$GPGGA,172552.195,4838.113,N,00202.042,W,1,12,1.0,0.0,M,0.0,M,,*75
$GPGSA,A,3,01,02,03,04,05,06,07,08,09,10,11,12,1.0,1.0,1.0*30
$GPRMC,172552.195,A,4838.113,N,00202.042,W,038.9,329.0,260618,000.0,W*60
$GPGGA,172553.195,4838.123,N,00202.048,W,1,12,1.0,0.0,M,0.0,M,,*7D
$GPGSA,A,3,01,02,03,04,05,06,07,08,09,10,11,12,1.0,1.0,1.0*30
$GPRMC,172553.195,A,4838.123,N,00202.048,W,038.9,329.0,260618,000.0,W*68
$GPGGA,172554.195,4838.134,N,00202.054,W,1,12,1.0,0.0,M,0.0,M,,*71
$GPGSA,A,3,01,02,03,04,05,06,07,08,09,10,11,12,1.0,1.0,1.0*30
$GPRMC,172554.195,A,4838.134,N,00202.054,W,038.9,329.0,260618,000.0,W*64
$GPGGA,172555.195,4838.144,N,00202.060,W,1,12,1.0,0.0,M,0.0,M,,*70
$GPGSA,A,3,01,02,03,04,05,06,07,08,09,10,11,12,1.0,1.0,1.0*30
$GPRMC,172555.195,A,4838.144,N,00202.060,W,038.9,329.0,260618,000.0,W*65
$GPGGA,172556.195,4838.154,N,00202.067,W,1,12,1.0,0.0,M,0.0,M,,*75
$GPGSA,A,3,01,02,03,04,05,06,07,08,09,10,11,12,1.0,1.0,1.0*30
$GPRMC,172556.195,A,4838.154,N,00202.067,W,038.9,329.0,260618,000.0,W*60
$GPGGA,172557.195,4838.164,N,00202.073,W,1,12,1.0,0.0,M,0.0,M,,*72
$GPGSA,A,3,01,02,03,04,05,06,07,08,09,10,11,12,1.0,1.0,1.0*30
$GPRMC,172557.195,A,4838.164,N,00202.073,W,038.9,329.0,260618,000.0,W*67
$GPGGA,172558.195,4838.174,N,00202.079,W,1,12,1.0,0.0,M,0.0,M,,*76
$GPGSA,A,3,01,02,03,04,05,06,07,08,09,10,11,12,1.0,1.0,1.0*30
$GPRMC,172558.195,A,4838.174,N,00202.079,W,038.9,329.0,260618,000.0,W*63
$GPGGA,172559.195,4838.184,N,00202.085,W,1,12,1.0,0.0,M,0.0,M,,*7B
$GPGSA,A,3,01,02,03,04,05,06,07,08,09,10,11,12,1.0,1.0,1.0*30
$GPRMC,172559.195,A,4838.184,N,00202.085,W,038.9,329.0,260618,000.0,W*6E
$GPGGA,172600.195,4838.194,N,00202.091,W,1,12,1.0,0.0,M,0.0,M,,*70
$GPGSA,A,3,01,02,03,04,05,06,07,08,09,10,11,12,1.0,1.0,1.0*30
$GPRMC,172600.195,A,4838.194,N,00202.091,W,038.9,329.0,260618,000.0,W*65
$GPGGA,172601.195,4838.204,N,00202.097,W,1,12,1.0,0.0,M,0.0,M,,*7D
$GPGSA,A,3,01,02,03,04,05,06,07,08,09,10,11,12,1.0,1.0,1.0*30
$GPRMC,172601.195,A,4838.204,N,00202.097,W,038.9,329.0,260618,000.0,W*68
$GPGGA,172602.195,4838.214,N,00202.103,W,1,12,1.0,0.0,M,0.0,M,,*73
$GPGSA,A,3,01,02,03,04,05,06,07,08,09,10,11,12,1.0,1.0,1.0*30
$GPRMC,172602.195,A,4838.214,N,00202.103,W,038.9,329.0,260618,000.0,W*66
$GPGGA,172603.195,4838.224,N,00202.109,W,1,12,1.0,0.0,M,0.0,M,,*7B
$GPGSA,A,3,01,02,03,04,05,06,07,08,09,10,11,12,1.0,1.0,1.0*30
$GPRMC,172603.195,A,4838.224,N,00202.109,W,038.9,329.0,260618,000.0,W*6E
$GPGGA,172604.195,4838.234,N,00202.115,W,1,12,1.0,0.0,M,0.0,M,,*70
$GPGSA,A,3,01,02,03,04,05,06,07,08,09,10,11,12,1.0,1.0,1.0*30
$GPRMC,172604.195,A,4838.234,N,00202.115,W,038.9,329.0,260618,000.0,W*65
$GPGGA,172605.195,4838.244,N,00202.121,W,1,12,1.0,0.0,M,0.0,M,,*71
$GPGSA,A,3,01,02,03,04,05,06,07,08,09,10,11,12,1.0,1.0,1.0*30
$GPRMC,172605.195,A,4838.244,N,00202.121,W,038.9,329.0,260618,000.0,W*64
$GPGGA,172606.195,4838.254,N,00202.127,W,1,12,1.0,0.0,M,0.0,M,,*75
$GPGSA,A,3,01,02,03,04,05,06,07,08,09,10,11,12,1.0,1.0,1.0*30
$GPRMC,172606.195,A,4838.254,N,00202.127,W,038.9,329.0,260618,000.0,W*60
$GPGGA,172607.195,4838.264,N,00202.133,W,1,12,1.0,0.0,M,0.0,M,,*72
$GPGSA,A,3,01,02,03,04,05,06,07,08,09,10,11,12,1.0,1.0,1.0*30
$GPRMC,172607.195,A,4838.264,N,00202.133,W,038.9,329.0,260618,000.0,W*67
$GPGGA,172608.195,4838.274,N,00202.139,W,1,12,1.0,0.0,M,0.0,M,,*76
$GPGSA,A,3,01,02,03,04,05,06,07,08,09,10,11,12,1.0,1.0,1.0*30
$GPRMC,172608.195,A,4838.274,N,00202.139,W,038.9,329.0,260618,000.0,W*63
$GPGGA,172609.195,4838.284,N,00202.145,W,1,12,1.0,0.0,M,0.0,M,,*73
$GPGSA,A,3,01,02,03,04,05,06,07,08,09,10,11,12,1.0,1.0,1.0*30
$GPRMC,172609.195,A,4838.284,N,00202.145,W,038.9,329.0,260618,000.0,W*66
$GPGGA,172610.195,4838.294,N,00202.151,W,1,12,1.0,0.0,M,0.0,M,,*7F
$GPGSA,A,3,01,02,03,04,05,06,07,08,09,10,11,12,1.0,1.0,1.0*30
$GPRMC,172610.195,A,4838.294,N,00202.151,W,038.9,329.0,260618,000.0,W*6A
$GPGGA,172611.195,4838.304,N,00202.157,W,1,12,1.0,0.0,M,0.0,M,,*70
$GPGSA,A,3,01,02,03,04,05,06,07,08,09,10,11,12,1.0,1.0,1.0*30
$GPRMC,172611.195,A,4838.304,N,00202.157,W,038.9,329.0,260618,000.0,W*65
$GPGGA,172612.195,4838.314,N,00202.163,W,1,12,1.0,0.0,M,0.0,M,,*75
$GPGSA,A,3,01,02,03,04,05,06,07,08,09,10,11,12,1.0,1.0,1.0*30
$GPRMC,172612.195,A,4838.314,N,00202.163,W,038.9,329.0,260618,000.0,W*60
$GPGGA,172613.195,4838.324,N,00202.169,W,1,12,1.0,0.0,M,0.0,M,,*7D
$GPGSA,A,3,01,02,03,04,05,06,07,08,09,10,11,12,1.0,1.0,1.0*30
$GPRMC,172613.195,A,4838.324,N,00202.169,W,038.9,329.0,260618,000.0,W*68
$GPGGA,172614.195,4838.334,N,00202.175,W,1,12,1.0,0.0,M,0.0,M,,*76
$GPGSA,A,3,01,02,03,04,05,06,07,08,09,10,11,12,1.0,1.0,1.0*30
$GPRMC,172614.195,A,4838.334,N,00202.175,W,038.9,329.0,260618,000.0,W*63
$GPGGA,172615.195,4838.344,N,00202.181,W,1,12,1.0,0.0,M,0.0,M,,*7B
$GPGSA,A,3,01,02,03,04,05,06,07,08,09,10,11,12,1.0,1.0,1.0*30
$GPRMC,172615.195,A,4838.344,N,00202.181,W,038.9,329.0,260618,000.0,W*6E
$GPGGA,172616.195,4838.354,N,00202.187,W,1,12,1.0,0.0,M,0.0,M,,*7F
$GPGSA,A,3,01,02,03,04,05,06,07,08,09,10,11,12,1.0,1.0,1.0*30
$GPRMC,172616.195,A,4838.354,N,00202.187,W,038.9,329.0,260618,000.0,W*6A
$GPGGA,172617.195,4838.364,N,00202.193,W,1,12,1.0,0.0,M,0.0,M,,*78
$GPGSA,A,3,01,02,03,04,05,06,07,08,09,10,11,12,1.0,1.0,1.0*30
$GPRMC,172617.195,A,4838.364,N,00202.193,W,038.9,329.0,260618,000.0,W*6D
$GPGGA,172618.195,4838.374,N,00202.199,W,1,12,1.0,0.0,M,0.0,M,,*7C
$GPGSA,A,3,01,02,03,04,05,06,07,08,09,10,11,12,1.0,1.0,1.0*30
$GPRMC,172618.195,A,4838.374,N,00202.199,W,038.9,329.0,260618,000.0,W*69
$GPGGA,172619.195,4838.384,N,00202.205,W,1,12,1.0,0.0,M,0.0,M,,*74
$GPGSA,A,3,01,02,03,04,05,06,07,08,09,10,11,12,1.0,1.0,1.0*30
$GPRMC,172619.195,A,4838.384,N,00202.205,W,038.9,329.0,260618,000.0,W*61
$GPGGA,172620.195,4838.394,N,00202.211,W,1,12,1.0,0.0,M,0.0,M,,*7A
$GPGSA,A,3,01,02,03,04,05,06,07,08,09,10,11,12,1.0,1.0,1.0*30
$GPRMC,172620.195,A,4838.394,N,00202.211,W,038.9,329.0,260618,000.0,W*6F
$GPGGA,172621.195,4838.404,N,00202.217,W,1,12,1.0,0.0,M,0.0,M,,*73
$GPGSA,A,3,01,02,03,04,05,06,07,08,09,10,11,12,1.0,1.0,1.0*30
$GPRMC,172621.195,A,4838.404,N,00202.217,W,038.9,329.0,260618,000.0,W*66
$GPGGA,172622.195,4838.414,N,00202.224,W,1,12,1.0,0.0,M,0.0,M,,*71
$GPGSA,A,3,01,02,03,04,05,06,07,08,09,10,11,12,1.0,1.0,1.0*30
$GPRMC,172622.195,A,4838.414,N,00202.224,W,038.9,329.0,260618,000.0,W*64
$GPGGA,172623.195,4838.424,N,00202.230,W,1,12,1.0,0.0,M,0.0,M,,*76
$GPGSA,A,3,01,02,03,04,05,06,07,08,09,10,11,12,1.0,1.0,1.0*30
$GPRMC,172623.195,A,4838.424,N,00202.230,W,038.9,329.0,260618,000.0,W*63
$GPGGA,172624.195,4838.434,N,00202.236,W,1,12,1.0,0.0,M,0.0,M,,*76
$GPGSA,A,3,01,02,03,04,05,06,07,08,09,10,11,12,1.0,1.0,1.0*30
$GPRMC,172624.195,A,4838.434,N,00202.236,W,038.9,329.0,260618,000.0,W*63
$GPGGA,172625.195,4838.444,N,00202.242,W,1,12,1.0,0.0,M,0.0,M,,*73
$GPGSA,A,3,01,02,03,04,05,06,07,08,09,10,11,12,1.0,1.0,1.0*30
$GPRMC,172625.195,A,4838.444,N,00202.242,W,038.9,329.0,260618,000.0,W*66
$GPGGA,172626.195,4838.454,N,00202.248,W,1,12,1.0,0.0,M,0.0,M,,*7B
$GPGSA,A,3,01,02,03,04,05,06,07,08,09,10,11,12,1.0,1.0,1.0*30
$GPRMC,172626.195,A,4838.454,N,00202.248,W,038.9,329.0,260618,000.0,W*6E
$GPGGA,172627.195,4838.464,N,00202.254,W,1,12,1.0,0.0,M,0.0,M,,*74
$GPGSA,A,3,01,02,03,04,05,06,07,08,09,10,11,12,1.0,1.0,1.0*30
$GPRMC,172627.195,A,4838.464,N,00202.254,W,038.9,329.0,260618,000.0,W*61
$GPGGA,172628.195,4838.474,N,00202.260,W,1,12,1.0,0.0,M,0.0,M,,*7D
$GPGSA,A,3,01,02,03,04,05,06,07,08,09,10,11,12,1.0,1.0,1.0*30
$GPRMC,172628.195,A,4838.474,N,00202.260,W,038.9,329.0,260618,000.0,W*68
$GPGGA,172629.195,4838.484,N,00202.266,W,1,12,1.0,0.0,M,0.0,M,,*75
$GPGSA,A,3,01,02,03,04,05,06,07,08,09,10,11,12,1.0,1.0,1.0*30
$GPRMC,172629.195,A,4838.484,N,00202.266,W,038.9,329.0,260618,000.0,W*60
$GPGGA,172630.195,4838.494,N,00202.272,W,1,12,1.0,0.0,M,0.0,M,,*79
$GPGSA,A,3,01,02,03,04,05,06,07,08,09,10,11,12,1.0,1.0,1.0*30
$GPRMC,172630.195,A,4838.494,N,00202.272,W,038.9,329.0,260618,000.0,W*6C
$GPGGA,172631.195,4838.505,N,00202.278,W,1,12,1.0,0.0,M,0.0,M,,*7B
$GPGSA,A,3,01,02,03,04,05,06,07,08,09,10,11,12,1.0,1.0,1.0*30
$GPRMC,172631.195,A,4838.505,N,00202.278,W,038.9,329.0,260618,000.0,W*6E
$GPGGA,172632.195,4838.515,N,00202.284,W,1,12,1.0,0.0,M,0.0,M,,*7A
$GPGSA,A,3,01,02,03,04,05,06,07,08,09,10,11,12,1.0,1.0,1.0*30
$GPRMC,172632.195,A,4838.515,N,00202.284,W,038.9,329.0,260618,000.0,W*6F
$GPGGA,172633.195,4838.525,N,00202.290,W,1,12,1.0,0.0,M,0.0,M,,*7D
$GPGSA,A,3,01,02,03,04,05,06,07,08,09,10,11,12,1.0,1.0,1.0*30
$GPRMC,172633.195,A,4838.525,N,00202.290,W,038.9,329.0,260618,000.0,W*68
$GPGGA,172634.195,4838.535,N,00202.296,W,1,12,1.0,0.0,M,0.0,M,,*7D
$GPGSA,A,3,01,02,03,04,05,06,07,08,09,10,11,12,1.0,1.0,1.0*30
$GPRMC,172634.195,A,4838.535,N,00202.296,W,038.9,329.0,260618,000.0,W*68
$GPGGA,172635.195,4838.545,N,00202.302,W,1,12,1.0,0.0,M,0.0,M,,*77
$GPGSA,A,3,01,02,03,04,05,06,07,08,09,10,11,12,1.0,1.0,1.0*30
$GPRMC,172635.195,A,4838.545,N,00202.302,W,038.9,329.0,260618,000.0,W*62
$GPGGA,172636.195,4838.555,N,00202.308,W,1,12,1.0,0.0,M,0.0,M,,*7F
$GPGSA,A,3,01,02,03,04,05,06,07,08,09,10,11,12,1.0,1.0,1.0*30
$GPRMC,172636.195,A,4838.555,N,00202.308,W,038.9,329.0,260618,000.0,W*6A
$GPGGA,172637.195,4838.565,N,00202.314,W,1,12,1.0,0.0,M,0.0,M,,*70
$GPGSA,A,3,01,02,03,04,05,06,07,08,09,10,11,12,1.0,1.0,1.0*30
$GPRMC,172637.195,A,4838.565,N,00202.314,W,038.9,329.0,260618,000.0,W*65
$GPGGA,172638.195,4838.575,N,00202.320,W,1,12,1.0,0.0,M,0.0,M,,*79
$GPGSA,A,3,01,02,03,04,05,06,07,08,09,10,11,12,1.0,1.0,1.0*30
$GPRMC,172638.195,A,4838.575,N,00202.320,W,038.9,329.0,260618,000.0,W*6C
$GPGGA,172639.195,4838.585,N,00202.326,W,1,12,1.0,0.0,M,0.0,M,,*71
$GPGSA,A,3,01,02,03,04,05,06,07,08,09,10,11,12,1.0,1.0,1.0*30
$GPRMC,172639.195,A,4838.585,N,00202.326,W,038.9,329.0,260618,000.0,W*64
$GPGGA,172640.195,4838.595,N,00202.332,W,1,12,1.0,0.0,M,0.0,M,,*7B
$GPGSA,A,3,01,02,03,04,05,06,07,08,09,10,11,12,1.0,1.0,1.0*30
$GPRMC,172640.195,A,4838.595,N,00202.332,W,038.9,329.0,260618,000.0,W*6E
$GPGGA,172641.195,4838.605,N,00202.338,W,1,12,1.0,0.0,M,0.0,M,,*7A
$GPGSA,A,3,01,02,03,04,05,06,07,08,09,10,11,12,1.0,1.0,1.0*30
$GPRMC,172641.195,A,4838.605,N,00202.338,W,038.9,329.0,260618,000.0,W*6F
$GPGGA,172642.195,4838.615,N,00202.344,W,1,12,1.0,0.0,M,0.0,M,,*73
$GPGSA,A,3,01,02,03,04,05,06,07,08,09,10,11,12,1.0,1.0,1.0*30
$GPRMC,172642.195,A,4838.615,N,00202.344,W,038.9,329.0,260618,000.0,W*66
$GPGGA,172643.195,4838.625,N,00202.350,W,1,12,1.0,0.0,M,0.0,M,,*74
$GPGSA,A,3,01,02,03,04,05,06,07,08,09,10,11,12,1.0,1.0,1.0*30
$GPRMC,172643.195,A,4838.625,N,00202.350,W,038.9,329.0,260618,000.0,W*61
$GPGGA,172644.195,4838.635,N,00202.356,W,1,12,1.0,0.0,M,0.0,M,,*74
$GPGSA,A,3,01,02,03,04,05,06,07,08,09,10,11,12,1.0,1.0,1.0*30
$GPRMC,172644.195,A,4838.635,N,00202.356,W,038.9,329.0,260618,000.0,W*61
$GPGGA,172645.195,4838.645,N,00202.362,W,1,12,1.0,0.0,M,0.0,M,,*75
$GPGSA,A,3,01,02,03,04,05,06,07,08,09,10,11,12,1.0,1.0,1.0*30
$GPRMC,172645.195,A,4838.645,N,00202.362,W,038.9,329.0,260618,000.0,W*60
$GPGGA,172646.195,4838.655,N,00202.368,W,1,12,1.0,0.0,M,0.0,M,,*7D
$GPGSA,A,3,01,02,03,04,05,06,07,08,09,10,11,12,1.0,1.0,1.0*30
$GPRMC,172646.195,A,4838.655,N,00202.368,W,038.9,329.0,260618,000.0,W*68
$GPGGA,172647.195,4838.665,N,00202.374,W,1,12,1.0,0.0,M,0.0,M,,*72
$GPGSA,A,3,01,02,03,04,05,06,07,08,09,10,11,12,1.0,1.0,1.0*30
$GPRMC,172647.195,A,4838.665,N,00202.374,W,038.9,329.0,260618,000.0,W*67
$GPGGA,172648.195,4838.675,N,00202.381,W,1,12,1.0,0.0,M,0.0,M,,*76
$GPGSA,A,3,01,02,03,04,05,06,07,08,09,10,11,12,1.0,1.0,1.0*30
$GPRMC,172648.195,A,4838.675,N,00202.381,W,038.9,329.0,260618,000.0,W*63
$GPGGA,172649.195,4838.685,N,00202.387,W,1,12,1.0,0.0,M,0.0,M,,*7E
$GPGSA,A,3,01,02,03,04,05,06,07,08,09,10,11,12,1.0,1.0,1.0*30
$GPRMC,172649.195,A,4838.685,N,00202.387,W,038.9,329.0,260618,000.0,W*6B
$GPGGA,172650.195,4838.695,N,00202.393,W,1,12,1.0,0.0,M,0.0,M,,*72
$GPGSA,A,3,01,02,03,04,05,06,07,08,09,10,11,12,1.0,1.0,1.0*30
$GPRMC,172650.195,A,4838.695,N,00202.393,W,038.9,329.0,260618,000.0,W*67
$GPGGA,172651.195,4838.705,N,00202.399,W,1,12,1.0,0.0,M,0.0,M,,*71
$GPGSA,A,3,01,02,03,04,05,06,07,08,09,10,11,12,1.0,1.0,1.0*30
$GPRMC,172651.195,A,4838.705,N,00202.399,W,038.9,329.0,260618,000.0,W*64
$GPGGA,172652.195,4838.715,N,00202.405,W,1,12,1.0,0.0,M,0.0,M,,*71
$GPGSA,A,3,01,02,03,04,05,06,07,08,09,10,11,12,1.0,1.0,1.0*30
$GPRMC,172652.195,A,4838.715,N,00202.405,W,038.9,329.0,260618,000.0,W*64
$GPGGA,172653.195,4838.725,N,00202.411,W,1,12,1.0,0.0,M,0.0,M,,*76
$GPGSA,A,3,01,02,03,04,05,06,07,08,09,10,11,12,1.0,1.0,1.0*30
$GPRMC,172653.195,A,4838.725,N,00202.411,W,038.9,329.0,260618,000.0,W*63
$GPGGA,172654.195,4838.735,N,00202.417,W,1,12,1.0,0.0,M,0.0,M,,*76
$GPGSA,A,3,01,02,03,04,05,06,07,08,09,10,11,12,1.0,1.0,1.0*30
$GPRMC,172654.195,A,4838.735,N,00202.417,W,038.9,329.0,260618,000.0,W*63
$GPGGA,172655.195,4838.745,N,00202.423,W,1,12,1.0,0.0,M,0.0,M,,*77
$GPGSA,A,3,01,02,03,04,05,06,07,08,09,10,11,12,1.0,1.0,1.0*30
$GPRMC,172655.195,A,4838.745,N,00202.423,W,038.9,329.0,260618,000.0,W*62
$GPGGA,172656.195,4838.755,N,00202.429,W,1,12,1.0,0.0,M,0.0,M,,*7F
$GPGSA,A,3,01,02,03,04,05,06,07,08,09,10,11,12,1.0,1.0,1.0*30
$GPRMC,172656.195,A,4838.755,N,00202.429,W,038.9,329.0,260618,000.0,W*6A
$GPGGA,172657.195,4838.765,N,00202.435,W,1,12,1.0,0.0,M,0.0,M,,*70
$GPGSA,A,3,01,02,03,04,05,06,07,08,09,10,11,12,1.0,1.0,1.0*30
$GPRMC,172657.195,A,4838.765,N,00202.435,W,038.9,329.0,260618,000.0,W*65
$GPGGA,172658.195,4838.775,N,00202.441,W,1,12,1.0,0.0,M,0.0,M,,*7D
$GPGSA,A,3,01,02,03,04,05,06,07,08,09,10,11,12,1.0,1.0,1.0*30
$GPRMC,172658.195,A,4838.775,N,00202.441,W,038.9,329.0,260618,000.0,W*68
$GPGGA,172659.195,4838.785,N,00202.447,W,1,12,1.0,0.0,M,0.0,M,,*75
$GPGSA,A,3,01,02,03,04,05,06,07,08,09,10,11,12,1.0,1.0,1.0*30
$GPRMC,172659.195,A,4838.785,N,00202.447,W,038.9,329.0,260618,000.0,W*60
$GPGGA,172700.195,4838.795,N,00202.453,W,1,12,1.0,0.0,M,0.0,M,,*7C
$GPGSA,A,3,01,02,03,04,05,06,07,08,09,10,11,12,1.0,1.0,1.0*30
$GPRMC,172700.195,A,4838.795,N,00202.453,W,038.9,329.0,260618,000.0,W*69
$GPGGA,172701.195,4838.805,N,00202.459,W,1,12,1.0,0.0,M,0.0,M,,*71
$GPGSA,A,3,01,02,03,04,05,06,07,08,09,10,11,12,1.0,1.0,1.0*30
$GPRMC,172701.195,A,4838.805,N,00202.459,W,038.9,329.0,260618,000.0,W*64
$GPGGA,172702.195,4838.815,N,00202.465,W,1,12,1.0,0.0,M,0.0,M,,*7C
$GPGSA,A,3,01,02,03,04,05,06,07,08,09,10,11,12,1.0,1.0,1.0*30
$GPRMC,172702.195,A,4838.815,N,00202.465,W,038.9,329.0,260618,000.0,W*69
$GPGGA,172703.195,4838.825,N,00202.471,W,1,12,1.0,0.0,M,0.0,M,,*7B
$GPGSA,A,3,01,02,03,04,05,06,07,08,09,10,11,12,1.0,1.0,1.0*30
$GPRMC,172703.195,A,4838.825,N,00202.471,W,038.9,329.0,260618,000.0,W*6E
$GPGGA,172704.195,4838.835,N,00202.477,W,1,12,1.0,0.0,M,0.0,M,,*7B
$GPGSA,A,3,01,02,03,04,05,06,07,08,09,10,11,12,1.0,1.0,1.0*30
$GPRMC,172704.195,A,4838.835,N,00202.477,W,038.9,329.0,260618,000.0,W*6E
$GPGGA,172705.195,4838.845,N,00202.483,W,1,12,1.0,0.0,M,0.0,M,,*76
$GPGSA,A,3,01,02,03,04,05,06,07,08,09,10,11,12,1.0,1.0,1.0*30
$GPRMC,172705.195,A,4838.845,N,00202.483,W,038.9,329.0,260618,000.0,W*63
$GPGGA,172706.195,4838.855,N,00202.489,W,1,12,1.0,0.0,M,0.0,M,,*7E
$GPGSA,A,3,01,02,03,04,05,06,07,08,09,10,11,12,1.0,1.0,1.0*30
$GPRMC,172706.195,A,4838.855,N,00202.489,W,038.9,329.0,260618,000.0,W*6B
$GPGGA,172707.195,4838.865,N,00202.495,W,1,12,1.0,0.0,M,0.0,M,,*71
$GPGSA,A,3,01,02,03,04,05,06,07,08,09,10,11,12,1.0,1.0,1.0*30
$GPRMC,172707.195,A,4838.865,N,00202.495,W,038.9,329.0,260618,000.0,W*64
$GPGGA,172708.195,4838.876,N,00202.501,W,1,12,1.0,0.0,M,0.0,M,,*70
$GPGSA,A,3,01,02,03,04,05,06,07,08,09,10,11,12,1.0,1.0,1.0*30
$GPRMC,172708.195,A,4838.876,N,00202.501,W,038.9,329.0,260618,000.0,W*65
$GPGGA,172709.195,4838.886,N,00202.507,W,1,12,1.0,0.0,M,0.0,M,,*78
$GPGSA,A,3,01,02,03,04,05,06,07,08,09,10,11,12,1.0,1.0,1.0*30
$GPRMC,172709.195,A,4838.886,N,00202.507,W,038.9,329.0,260618,000.0,W*6D
$GPGGA,172710.195,4838.896,N,00202.513,W,1,12,1.0,0.0,M,0.0,M,,*74
$GPGSA,A,3,01,02,03,04,05,06,07,08,09,10,11,12,1.0,1.0,1.0*30
$GPRMC,172710.195,A,4838.896,N,00202.513,W,038.9,329.0,260618,000.0,W*61
$GPGGA,172711.195,4838.906,N,00202.519,W,1,12,1.0,0.0,M,0.0,M,,*77
$GPGSA,A,3,01,02,03,04,05,06,07,08,09,10,11,12,1.0,1.0,1.0*30
$GPRMC,172711.195,A,4838.906,N,00202.519,W,038.9,329.0,260618,000.0,W*62
$GPGGA,172712.195,4838.916,N,00202.525,W,1,12,1.0,0.0,M,0.0,M,,*7A
$GPGSA,A,3,01,02,03,04,05,06,07,08,09,10,11,12,1.0,1.0,1.0*30
$GPRMC,172712.195,A,4838.916,N,00202.525,W,038.9,329.0,260618,000.0,W*6F
$GPGGA,172713.195,4838.926,N,00202.531,W,1,12,1.0,0.0,M,0.0,M,,*7D
$GPGSA,A,3,01,02,03,04,05,06,07,08,09,10,11,12,1.0,1.0,1.0*30
$GPRMC,172713.195,A,4838.926,N,00202.531,W,038.9,329.0,260618,000.0,W*68
$GPGGA,172714.195,4838.936,N,00202.538,W,1,12,1.0,0.0,M,0.0,M,,*72
$GPGSA,A,3,01,02,03,04,05,06,07,08,09,10,11,12,1.0,1.0,1.0*30
$GPRMC,172714.195,A,4838.936,N,00202.538,W,038.9,329.0,260618,000.0,W*67
$GPGGA,172715.195,4838.946,N,00202.544,W,1,12,1.0,0.0,M,0.0,M,,*7F
$GPGSA,A,3,01,02,03,04,05,06,07,08,09,10,11,12,1.0,1.0,1.0*30
$GPRMC,172715.195,A,4838.946,N,00202.544,W,038.9,329.0,260618,000.0,W*6A
$GPGGA,172716.195,4838.956,N,00202.550,W,1,12,1.0,0.0,M,0.0,M,,*78
$GPGSA,A,3,01,02,03,04,05,06,07,08,09,10,11,12,1.0,1.0,1.0*30
$GPRMC,172716.195,A,4838.956,N,00202.550,W,038.9,329.0,260618,000.0,W*6D
$GPGGA,172717.195,4838.966,N,00202.556,W,1,12,1.0,0.0,M,0.0,M,,*7C
$GPGSA,A,3,01,02,03,04,05,06,07,08,09,10,11,12,1.0,1.0,1.0*30
$GPRMC,172717.195,A,4838.966,N,00202.556,W,038.9,329.0,260618,000.0,W*69
$GPGGA,172718.195,4838.976,N,00202.562,W,1,12,1.0,0.0,M,0.0,M,,*75
$GPGSA,A,3,01,02,03,04,05,06,07,08,09,10,11,12,1.0,1.0,1.0*30
$GPRMC,172718.195,A,4838.976,N,00202.562,W,038.9,329.0,260618,000.0,W*60
$GPGGA,172719.195,4838.986,N,00202.568,W,1,12,1.0,0.0,M,0.0,M,,*71
$GPGSA,A,3,01,02,03,04,05,06,07,08,09,10,11,12,1.0,1.0,1.0*30
$GPRMC,172719.195,A,4838.986,N,00202.568,W,038.9,329.0,260618,000.0,W*64
$GPGGA,172720.195,4838.996,N,00202.574,W,1,12,1.0,0.0,M,0.0,M,,*77
$GPGSA,A,3,01,02,03,04,05,06,07,08,09,10,11,12,1.0,1.0,1.0*30
$GPRMC,172720.195,A,4838.996,N,00202.574,W,038.9,329.0,260618,000.0,W*62
$GPGGA,172721.195,4839.006,N,00202.580,W,1,12,1.0,0.0,M,0.0,M,,*7C
$GPGSA,A,3,01,02,03,04,05,06,07,08,09,10,11,12,1.0,1.0,1.0*30
$GPRMC,172721.195,A,4839.006,N,00202.580,W,038.9,329.0,260618,000.0,W*69
$GPGGA,172722.195,4839.016,N,00202.586,W,1,12,1.0,0.0,M,0.0,M,,*78
$GPGSA,A,3,01,02,03,04,05,06,07,08,09,10,11,12,1.0,1.0,1.0*30
$GPRMC,172722.195,A,4839.016,N,00202.586,W,038.9,329.0,260618,000.0,W*6D
$GPGGA,172723.195,4839.026,N,00202.592,W,1,12,1.0,0.0,M,0.0,M,,*7F
$GPGSA,A,3,01,02,03,04,05,06,07,08,09,10,11,12,1.0,1.0,1.0*30
$GPRMC,172723.195,A,4839.026,N,00202.592,W,038.9,329.0,260618,000.0,W*6A
$GPGGA,172724.195,4839.036,N,00202.598,W,1,12,1.0,0.0,M,0.0,M,,*73
$GPGSA,A,3,01,02,03,04,05,06,07,08,09,10,11,12,1.0,1.0,1.0*30
$GPRMC,172724.195,A,4839.036,N,00202.598,W,038.9,329.0,260618,000.0,W*66
$GPGGA,172725.195,4839.046,N,00202.604,W,1,12,1.0,0.0,M,0.0,M,,*73
$GPGSA,A,3,01,02,03,04,05,06,07,08,09,10,11,12,1.0,1.0,1.0*30
$GPRMC,172725.195,A,4839.046,N,00202.604,W,038.9,329.0,260618,000.0,W*66
$GPGGA,172726.195,4839.056,N,00202.610,W,1,12,1.0,0.0,M,0.0,M,,*74
$GPGSA,A,3,01,02,03,04,05,06,07,08,09,10,11,12,1.0,1.0,1.0*30
$GPRMC,172726.195,A,4839.056,N,00202.610,W,038.9,329.0,260618,000.0,W*61
$GPGGA,172727.195,4839.066,N,00202.616,W,1,12,1.0,0.0,M,0.0,M,,*70
$GPGSA,A,3,01,02,03,04,05,06,07,08,09,10,11,12,1.0,1.0,1.0*30
$GPRMC,172727.195,A,4839.066,N,00202.616,W,038.9,329.0,260618,000.0,W*65
$GPGGA,172728.195,4839.076,N,00202.622,W,1,12,1.0,0.0,M,0.0,M,,*79
$GPGSA,A,3,01,02,03,04,05,06,07,08,09,10,11,12,1.0,1.0,1.0*30
$GPRMC,172728.195,A,4839.076,N,00202.622,W,038.9,329.0,260618,000.0,W*6C
$GPGGA,172729.195,4839.086,N,00202.628,W,1,12,1.0,0.0,M,0.0,M,,*7D
$GPGSA,A,3,01,02,03,04,05,06,07,08,09,10,11,12,1.0,1.0,1.0*30
$GPRMC,172729.195,A,4839.086,N,00202.628,W,038.9,329.0,260618,000.0,W*68
$GPGGA,172730.195,4839.096,N,00202.634,W,1,12,1.0,0.0,M,0.0,M,,*79
$GPGSA,A,3,01,02,03,04,05,06,07,08,09,10,11,12,1.0,1.0,1.0*30
$GPRMC,172730.195,A,4839.096,N,00202.634,W,038.9,329.0,260618,000.0,W*6C
$GPGGA,172731.195,4839.106,N,00202.640,W,1,12,1.0,0.0,M,0.0,M,,*73
$GPGSA,A,3,01,02,03,04,05,06,07,08,09,10,11,12,1.0,1.0,1.0*30
$GPRMC,172731.195,A,4839.106,N,00202.640,W,038.9,329.0,260618,000.0,W*66
$GPGGA,172732.195,4839.116,N,00202.646,W,1,12,1.0,0.0,M,0.0,M,,*77
$GPGSA,A,3,01,02,03,04,05,06,07,08,09,10,11,12,1.0,1.0,1.0*30
$GPRMC,172732.195,A,4839.116,N,00202.646,W,038.9,329.0,260618,000.0,W*62
$GPGGA,172733.195,4839.126,N,00202.652,W,1,12,1.0,0.0,M,0.0,M,,*70
$GPGSA,A,3,01,02,03,04,05,06,07,08,09,10,11,12,1.0,1.0,1.0*30
$GPRMC,172733.195,A,4839.126,N,00202.652,W,038.9,329.0,260618,000.0,W*65
$GPGGA,172734.195,4839.136,N,00202.658,W,1,12,1.0,0.0,M,0.0,M,,*7C
$GPGSA,A,3,01,02,03,04,05,06,07,08,09,10,11,12,1.0,1.0,1.0*30
$GPRMC,172734.195,A,4839.136,N,00202.658,W,038.9,329.0,260618,000.0,W*69
$GPGGA,172735.195,4839.146,N,00202.664,W,1,12,1.0,0.0,M,0.0,M,,*75
$GPGSA,A,3,01,02,03,04,05,06,07,08,09,10,11,12,1.0,1.0,1.0*30
$GPRMC,172735.195,A,4839.146,N,00202.664,W,038.9,329.0,260618,000.0,W*60
$GPGGA,172736.195,4839.156,N,00202.670,W,1,12,1.0,0.0,M,0.0,M,,*72
$GPGSA,A,3,01,02,03,04,05,06,07,08,09,10,11,12,1.0,1.0,1.0*30
$GPRMC,172736.195,A,4839.156,N,00202.670,W,038.9,329.0,260618,000.0,W*67
$GPGGA,172737.195,4839.166,N,00202.676,W,1,12,1.0,0.0,M,0.0,M,,*76
$GPGSA,A,3,01,02,03,04,05,06,07,08,09,10,11,12,1.0,1.0,1.0*30
$GPRMC,172737.195,A,4839.166,N,00202.676,W,038.9,329.0,260618,000.0,W*63
$GPGGA,172738.195,4839.176,N,00202.682,W,1,12,1.0,0.0,M,0.0,M,,*73
$GPGSA,A,3,01,02,03,04,05,06,07,08,09,10,11,12,1.0,1.0,1.0*30
$GPRMC,172738.195,A,4839.176,N,00202.682,W,038.9,329.0,260618,000.0,W*66
$GPGGA,172739.195,4839.186,N,00202.688,W,1,12,1.0,0.0,M,0.0,M,,*77
$GPGSA,A,3,01,02,03,04,05,06,07,08,09,10,11,12,1.0,1.0,1.0*30
$GPRMC,172739.195,A,4839.186,N,00202.688,W,038.9,329.0,260618,000.0,W*62
$GPGGA,172740.195,4839.196,N,00202.694,W,1,12,1.0,0.0,M,0.0,M,,*75
$GPGSA,A,3,01,02,03,04,05,06,07,08,09,10,11,12,1.0,1.0,1.0*30
$GPRMC,172740.195,A,4839.196,N,00202.694,W,038.9,329.0,260618,000.0,W*60
$GPGGA,172741.195,4839.206,N,00202.701,W,1,12,1.0,0.0,M,0.0,M,,*73
$GPGSA,A,3,01,02,03,04,05,06,07,08,09,10,11,12,1.0,1.0,1.0*30
$GPRMC,172741.195,A,4839.206,N,00202.701,W,038.9,329.0,260618,000.0,W*66
$GPGGA,172742.195,4839.216,N,00202.707,W,1,12,1.0,0.0,M,0.0,M,,*77
$GPGSA,A,3,01,02,03,04,05,06,07,08,09,10,11,12,1.0,1.0,1.0*30
$GPRMC,172742.195,A,4839.216,N,00202.707,W,038.9,329.0,260618,000.0,W*62
$GPGGA,172743.195,4839.226,N,00202.713,W,1,12,1.0,0.0,M,0.0,M,,*70
$GPGSA,A,3,01,02,03,04,05,06,07,08,09,10,11,12,1.0,1.0,1.0*30
$GPRMC,172743.195,A,4839.226,N,00202.713,W,038.9,329.0,260618,000.0,W*65
$GPGGA,172744.195,4839.236,N,00202.719,W,1,12,1.0,0.0,M,0.0,M,,*7C
$GPGSA,A,3,01,02,03,04,05,06,07,08,09,10,11,12,1.0,1.0,1.0*30
$GPRMC,172744.195,A,4839.236,N,00202.719,W,038.9,329.0,260618,000.0,W*69
$GPGGA,172745.195,4839.247,N,00202.725,W,1,12,1.0,0.0,M,0.0,M,,*74
$GPGSA,A,3,01,02,03,04,05,06,07,08,09,10,11,12,1.0,1.0,1.0*30
$GPRMC,172745.195,A,4839.247,N,00202.725,W,038.9,329.0,260618,000.0,W*61
$GPGGA,172746.195,4839.257,N,00202.731,W,1,12,1.0,0.0,M,0.0,M,,*73
$GPGSA,A,3,01,02,03,04,05,06,07,08,09,10,11,12,1.0,1.0,1.0*30
$GPRMC,172746.195,A,4839.257,N,00202.731,W,038.9,329.0,260618,000.0,W*66
$GPGGA,172747.195,4839.267,N,00202.737,W,1,12,1.0,0.0,M,0.0,M,,*77
$GPGSA,A,3,01,02,03,04,05,06,07,08,09,10,11,12,1.0,1.0,1.0*30
$GPRMC,172747.195,A,4839.267,N,00202.737,W,038.9,329.0,260618,000.0,W*62
$GPGGA,172748.195,4839.277,N,00202.743,W,1,12,1.0,0.0,M,0.0,M,,*7A
$GPGSA,A,3,01,02,03,04,05,06,07,08,09,10,11,12,1.0,1.0,1.0*30
$GPRMC,172748.195,A,4839.277,N,00202.743,W,038.9,329.0,260618,000.0,W*6F
$GPGGA,172749.195,4839.287,N,00202.749,W,1,12,1.0,0.0,M,0.0,M,,*7E
$GPGSA,A,3,01,02,03,04,05,06,07,08,09,10,11,12,1.0,1.0,1.0*30
$GPRMC,172749.195,A,4839.287,N,00202.749,W,038.9,329.0,260618,000.0,W*6B
$GPGGA,172750.195,4839.297,N,00202.755,W,1,12,1.0,0.0,M,0.0,M,,*7A
$GPGSA,A,3,01,02,03,04,05,06,07,08,09,10,11,12,1.0,1.0,1.0*30
$GPRMC,172750.195,A,4839.297,N,00202.755,W,038.9,329.0,260618,000.0,W*6F
$GPGGA,172751.195,4839.307,N,00202.761,W,1,12,1.0,0.0,M,0.0,M,,*74
$GPGSA,A,3,01,02,03,04,05,06,07,08,09,10,11,12,1.0,1.0,1.0*30
$GPRMC,172751.195,A,4839.307,N,00202.761,W,038.9,057.9,260618,000.0,W*62
$GPGGA,172752.195,4839.314,N,00202.749,W,1,12,1.0,0.0,M,0.0,M,,*7F
$GPGSA,A,3,01,02,03,04,05,06,07,08,09,10,11,12,1.0,1.0,1.0*30
$GPRMC,172752.195,A,4839.314,N,00202.749,W,038.9,057.9,260618,000.0,W*69
$GPGGA,172753.195,4839.322,N,00202.737,W,1,12,1.0,0.0,M,0.0,M,,*72
$GPGSA,A,3,01,02,03,04,05,06,07,08,09,10,11,12,1.0,1.0,1.0*30
$GPRMC,172753.195,A,4839.322,N,00202.737,W,038.9,057.9,260618,000.0,W*64
$GPGGA,172754.195,4839.329,N,00202.725,W,1,12,1.0,0.0,M,0.0,M,,*7D
$GPGSA,A,3,01,02,03,04,05,06,07,08,09,10,11,12,1.0,1.0,1.0*30
$GPRMC,172754.195,A,4839.329,N,00202.725,W,038.9,057.9,260618,000.0,W*6B
$GPGGA,172755.195,4839.336,N,00202.713,W,1,12,1.0,0.0,M,0.0,M,,*77
$GPGSA,A,3,01,02,03,04,05,06,07,08,09,10,11,12,1.0,1.0,1.0*30
$GPRMC,172755.195,A,4839.336,N,00202.713,W,038.9,057.9,260618,000.0,W*61
$GPGGA,172756.195,4839.344,N,00202.702,W,1,12,1.0,0.0,M,0.0,M,,*71
$GPGSA,A,3,01,02,03,04,05,06,07,08,09,10,11,12,1.0,1.0,1.0*30
$GPRMC,172756.195,A,4839.344,N,00202.702,W,038.9,057.9,260618,000.0,W*67
$GPGGA,172757.195,4839.351,N,00202.690,W,1,12,1.0,0.0,M,0.0,M,,*7E
$GPGSA,A,3,01,02,03,04,05,06,07,08,09,10,11,12,1.0,1.0,1.0*30
$GPRMC,172757.195,A,4839.351,N,00202.690,W,038.9,057.9,260618,000.0,W*68
$GPGGA,172758.195,4839.359,N,00202.678,W,1,12,1.0,0.0,M,0.0,M,,*7F
$GPGSA,A,3,01,02,03,04,05,06,07,08,09,10,11,12,1.0,1.0,1.0*30
$GPRMC,172758.195,A,4839.359,N,00202.678,W,038.9,057.9,260618,000.0,W*69
$GPGGA,172759.195,4839.366,N,00202.666,W,1,12,1.0,0.0,M,0.0,M,,*7D
$GPGSA,A,3,01,02,03,04,05,06,07,08,09,10,11,12,1.0,1.0,1.0*30
$GPRMC,172759.195,A,4839.366,N,00202.666,W,038.9,057.9,260618,000.0,W*6B
$GPGGA,172800.195,4839.373,N,00202.654,W,1,12,1.0,0.0,M,0.0,M,,*7B
$GPGSA,A,3,01,02,03,04,05,06,07,08,09,10,11,12,1.0,1.0,1.0*30
$GPRMC,172800.195,A,4839.373,N,00202.654,W,038.9,057.9,260618,000.0,W*6D
$GPGGA,172801.195,4839.381,N,00202.642,W,1,12,1.0,0.0,M,0.0,M,,*70
$GPGSA,A,3,01,02,03,04,05,06,07,08,09,10,11,12,1.0,1.0,1.0*30
$GPRMC,172801.195,A,4839.381,N,00202.642,W,038.9,057.9,260618,000.0,W*66
$GPGGA,172802.195,4839.388,N,00202.630,W,1,12,1.0,0.0,M,0.0,M,,*7F
$GPGSA,A,3,01,02,03,04,05,06,07,08,09,10,11,12,1.0,1.0,1.0*30
$GPRMC,172802.195,A,4839.388,N,00202.630,W,038.9,057.9,260618,000.0,W*69
$GPGGA,172803.195,4839.396,N,00202.619,W,1,12,1.0,0.0,M,0.0,M,,*7A
$GPGSA,A,3,01,02,03,04,05,06,07,08,09,10,11,12,1.0,1.0,1.0*30
$GPRMC,172803.195,A,4839.396,N,00202.619,W,038.9,057.9,260618,000.0,W*6C
$GPGGA,172804.195,4839.403,N,00202.607,W,1,12,1.0,0.0,M,0.0,M,,*79
$GPGSA,A,3,01,02,03,04,05,06,07,08,09,10,11,12,1.0,1.0,1.0*30
$GPRMC,172804.195,A,4839.403,N,00202.607,W,038.9,057.9,260618,000.0,W*6F
$GPGGA,172805.195,4839.411,N,00202.595,W,1,12,1.0,0.0,M,0.0,M,,*73
$GPGSA,A,3,01,02,03,04,05,06,07,08,09,10,11,12,1.0,1.0,1.0*30
$GPRMC,172805.195,A,4839.411,N,00202.595,W,038.9,057.9,260618,000.0,W*65
$GPGGA,172806.195,4839.418,N,00202.583,W,1,12,1.0,0.0,M,0.0,M,,*7E
$GPGSA,A,3,01,02,03,04,05,06,07,08,09,10,11,12,1.0,1.0,1.0*30
$GPRMC,172806.195,A,4839.418,N,00202.583,W,038.9,057.9,260618,000.0,W*68
$GPGGA,172807.195,4839.425,N,00202.571,W,1,12,1.0,0.0,M,0.0,M,,*7C
$GPGSA,A,3,01,02,03,04,05,06,07,08,09,10,11,12,1.0,1.0,1.0*30
$GPRMC,172807.195,A,4839.425,N,00202.571,W,038.9,057.9,260618,000.0,W*6A
$GPGGA,172808.195,4839.433,N,00202.559,W,1,12,1.0,0.0,M,0.0,M,,*7E
$GPGSA,A,3,01,02,03,04,05,06,07,08,09,10,11,12,1.0,1.0,1.0*30
$GPRMC,172808.195,A,4839.433,N,00202.559,W,038.9,057.9,260618,000.0,W*68
$GPGGA,172809.195,4839.440,N,00202.547,W,1,12,1.0,0.0,M,0.0,M,,*74
$GPGSA,A,3,01,02,03,04,05,06,07,08,09,10,11,12,1.0,1.0,1.0*30
$GPRMC,172809.195,A,4839.440,N,00202.547,W,038.9,057.9,260618,000.0,W*62
$GPGGA,172810.195,4839.448,N,00202.535,W,1,12,1.0,0.0,M,0.0,M,,*71
$GPGSA,A,3,01,02,03,04,05,06,07,08,09,10,11,12,1.0,1.0,1.0*30
$GPRMC,172810.195,A,4839.448,N,00202.535,W,038.9,057.9,260618,000.0,W*67
$GPGGA,172811.195,4839.455,N,00202.524,W,1,12,1.0,0.0,M,0.0,M,,*7C
$GPGSA,A,3,01,02,03,04,05,06,07,08,09,10,11,12,1.0,1.0,1.0*30
$GPRMC,172811.195,A,4839.455,N,00202.524,W,038.9,057.9,260618,000.0,W*6A
$GPGGA,172812.195,4839.462,N,00202.512,W,1,12,1.0,0.0,M,0.0,M,,*7E
$GPGSA,A,3,01,02,03,04,05,06,07,08,09,10,11,12,1.0,1.0,1.0*30
$GPRMC,172812.195,A,4839.462,N,00202.512,W,038.9,057.9,260618,000.0,W*68
$GPGGA,172813.195,4839.470,N,00202.500,W,1,12,1.0,0.0,M,0.0,M,,*7F
$GPGSA,A,3,01,02,03,04,05,06,07,08,09,10,11,12,1.0,1.0,1.0*30
$GPRMC,172813.195,A,4839.470,N,00202.500,W,038.9,057.9,260618,000.0,W*69
$GPGGA,172814.195,4839.477,N,00202.488,W,1,12,1.0,0.0,M,0.0,M,,*7E
$GPGSA,A,3,01,02,03,04,05,06,07,08,09,10,11,12,1.0,1.0,1.0*30
$GPRMC,172814.195,A,4839.477,N,00202.488,W,038.9,057.9,260618,000.0,W*68
$GPGGA,172815.195,4839.485,N,00202.476,W,1,12,1.0,0.0,M,0.0,M,,*73
$GPGSA,A,3,01,02,03,04,05,06,07,08,09,10,11,12,1.0,1.0,1.0*30
$GPRMC,172815.195,A,4839.485,N,00202.476,W,038.9,057.9,260618,000.0,W*65
$GPGGA,172816.195,4839.492,N,00202.464,W,1,12,1.0,0.0,M,0.0,M,,*75
$GPGSA,A,3,01,02,03,04,05,06,07,08,09,10,11,12,1.0,1.0,1.0*30
$GPRMC,172816.195,A,4839.492,N,00202.464,W,038.9,057.9,260618,000.0,W*63
$GPGGA,172817.195,4839.500,N,00202.452,W,1,12,1.0,0.0,M,0.0,M,,*7B
$GPGSA,A,3,01,02,03,04,05,06,07,08,09,10,11,12,1.0,1.0,1.0*30
$GPRMC,172817.195,A,4839.500,N,00202.452,W,038.9,089.4,260618,000.0,W*63
$GPGGA,172818.195,4839.500,N,00202.436,W,1,12,1.0,0.0,M,0.0,M,,*76
$GPGSA,A,3,01,02,03,04,05,06,07,08,09,10,11,12,1.0,1.0,1.0*30
$GPRMC,172818.195,A,4839.500,N,00202.436,W,038.9,089.4,260618,000.0,W*6E
$GPGGA,172819.195,4839.500,N,00202.420,W,1,12,1.0,0.0,M,0.0,M,,*70
$GPGSA,A,3,01,02,03,04,05,06,07,08,09,10,11,12,1.0,1.0,1.0*30
$GPRMC,172819.195,A,4839.500,N,00202.420,W,038.9,089.4,260618,000.0,W*68
$GPGGA,172820.195,4839.500,N,00202.403,W,1,12,1.0,0.0,M,0.0,M,,*7B
$GPGSA,A,3,01,02,03,04,05,06,07,08,09,10,11,12,1.0,1.0,1.0*30
$GPRMC,172820.195,A,4839.500,N,00202.403,W,038.9,089.4,260618,000.0,W*63
$GPGGA,172821.195,4839.500,N,00202.387,W,1,12,1.0,0.0,M,0.0,M,,*71
$GPGSA,A,3,01,02,03,04,05,06,07,08,09,10,11,12,1.0,1.0,1.0*30
$GPRMC,172821.195,A,4839.500,N,00202.387,W,038.9,089.4,260618,000.0,W*69
$GPGGA,172822.195,4839.500,N,00202.371,W,1,12,1.0,0.0,M,0.0,M,,*7B
$GPGSA,A,3,01,02,03,04,05,06,07,08,09,10,11,12,1.0,1.0,1.0*30
$GPRMC,172822.195,A,4839.500,N,00202.371,W,038.9,089.4,260618,000.0,W*63
$GPGGA,172823.195,4839.501,N,00202.354,W,1,12,1.0,0.0,M,0.0,M,,*7C
$GPGSA,A,3,01,02,03,04,05,06,07,08,09,10,11,12,1.0,1.0,1.0*30
$GPRMC,172823.195,A,4839.501,N,00202.354,W,038.9,089.4,260618,000.0,W*64
$GPGGA,172824.195,4839.501,N,00202.338,W,1,12,1.0,0.0,M,0.0,M,,*71
$GPGSA,A,3,01,02,03,04,05,06,07,08,09,10,11,12,1.0,1.0,1.0*30
$GPRMC,172824.195,A,4839.501,N,00202.338,W,038.9,089.4,260618,000.0,W*69
$GPGGA,172825.195,4839.501,N,00202.322,W,1,12,1.0,0.0,M,0.0,M,,*7B
$GPGSA,A,3,01,02,03,04,05,06,07,08,09,10,11,12,1.0,1.0,1.0*30
$GPRMC,172825.195,A,4839.501,N,00202.322,W,038.9,089.4,260618,000.0,W*63
$GPGGA,172826.195,4839.501,N,00202.305,W,1,12,1.0,0.0,M,0.0,M,,*7D
$GPGSA,A,3,01,02,03,04,05,06,07,08,09,10,11,12,1.0,1.0,1.0*30
$GPRMC,172826.195,A,4839.501,N,00202.305,W,038.9,089.4,260618,000.0,W*65
$GPGGA,172827.195,4839.501,N,00202.289,W,1,12,1.0,0.0,M,0.0,M,,*79
$GPGSA,A,3,01,02,03,04,05,06,07,08,09,10,11,12,1.0,1.0,1.0*30
$GPRMC,172827.195,A,4839.501,N,00202.289,W,038.9,089.4,260618,000.0,W*61
$GPGGA,172828.195,4839.501,N,00202.273,W,1,12,1.0,0.0,M,0.0,M,,*73
$GPGSA,A,3,01,02,03,04,05,06,07,08,09,10,11,12,1.0,1.0,1.0*30
$GPRMC,172828.195,A,4839.501,N,00202.273,W,038.9,089.4,260618,000.0,W*6B
$GPGGA,172829.195,4839.502,N,00202.256,W,1,12,1.0,0.0,M,0.0,M,,*76
$GPGSA,A,3,01,02,03,04,05,06,07,08,09,10,11,12,1.0,1.0,1.0*30
$GPRMC,172829.195,A,4839.502,N,00202.256,W,038.9,089.4,260618,000.0,W*6E
$GPGGA,172830.195,4839.502,N,00202.240,W,1,12,1.0,0.0,M,0.0,M,,*79
$GPGSA,A,3,01,02,03,04,05,06,07,08,09,10,11,12,1.0,1.0,1.0*30
$GPRMC,172830.195,A,4839.502,N,00202.240,W,038.9,089.4,260618,000.0,W*61
$GPGGA,172831.195,4839.502,N,00202.224,W,1,12,1.0,0.0,M,0.0,M,,*7A
$GPGSA,A,3,01,02,03,04,05,06,07,08,09,10,11,12,1.0,1.0,1.0*30
$GPRMC,172831.195,A,4839.502,N,00202.224,W,038.9,089.4,260618,000.0,W*62
$GPGGA,172832.195,4839.502,N,00202.207,W,1,12,1.0,0.0,M,0.0,M,,*78
$GPGSA,A,3,01,02,03,04,05,06,07,08,09,10,11,12,1.0,1.0,1.0*30
$GPRMC,172832.195,A,4839.502,N,00202.207,W,038.9,089.4,260618,000.0,W*60
$GPGGA,172833.195,4839.502,N,00202.191,W,1,12,1.0,0.0,M,0.0,M,,*75
$GPGSA,A,3,01,02,03,04,05,06,07,08,09,10,11,12,1.0,1.0,1.0*30
$GPRMC,172833.195,A,4839.502,N,00202.191,W,038.9,089.4,260618,000.0,W*6D
$GPGGA,172834.195,4839.503,N,00202.175,W,1,12,1.0,0.0,M,0.0,M,,*79
$GPGSA,A,3,01,02,03,04,05,06,07,08,09,10,11,12,1.0,1.0,1.0*30
$GPRMC,172834.195,A,4839.503,N,00202.175,W,038.9,089.4,260618,000.0,W*61
$GPGGA,172835.195,4839.503,N,00202.158,W,1,12,1.0,0.0,M,0.0,M,,*77
$GPGSA,A,3,01,02,03,04,05,06,07,08,09,10,11,12,1.0,1.0,1.0*30
$GPRMC,172835.195,A,4839.503,N,00202.158,W,038.9,089.4,260618,000.0,W*6F
$GPGGA,172836.195,4839.503,N,00202.142,W,1,12,1.0,0.0,M,0.0,M,,*7F
$GPGSA,A,3,01,02,03,04,05,06,07,08,09,10,11,12,1.0,1.0,1.0*30
$GPRMC,172836.195,A,4839.503,N,00202.142,W,038.9,089.4,260618,000.0,W*67
$GPGGA,172837.195,4839.503,N,00202.126,W,1,12,1.0,0.0,M,0.0,M,,*7C
$GPGSA,A,3,01,02,03,04,05,06,07,08,09,10,11,12,1.0,1.0,1.0*30
$GPRMC,172837.195,A,4839.503,N,00202.126,W,038.9,089.4,260618,000.0,W*64
$GPGGA,172838.195,4839.503,N,00202.109,W,1,12,1.0,0.0,M,0.0,M,,*7E
$GPGSA,A,3,01,02,03,04,05,06,07,08,09,10,11,12,1.0,1.0,1.0*30
$GPRMC,172838.195,A,4839.503,N,00202.109,W,038.9,089.4,260618,000.0,W*66
$GPGGA,172839.195,4839.503,N,00202.093,W,1,12,1.0,0.0,M,0.0,M,,*7D
$GPGSA,A,3,01,02,03,04,05,06,07,08,09,10,11,12,1.0,1.0,1.0*30
$GPRMC,172839.195,A,4839.503,N,00202.093,W,038.9,089.4,260618,000.0,W*65
$GPGGA,172840.195,4839.504,N,00202.077,W,1,12,1.0,0.0,M,0.0,M,,*7E
$GPGSA,A,3,01,02,03,04,05,06,07,08,09,10,11,12,1.0,1.0,1.0*30
$GPRMC,172840.195,A,4839.504,N,00202.077,W,038.9,089.4,260618,000.0,W*66
$GPGGA,172841.195,4839.504,N,00202.060,W,1,12,1.0,0.0,M,0.0,M,,*79
$GPGSA,A,3,01,02,03,04,05,06,07,08,09,10,11,12,1.0,1.0,1.0*30
$GPRMC,172841.195,A,4839.504,N,00202.060,W,038.9,089.4,260618,000.0,W*61
$GPGGA,172842.195,4839.504,N,00202.044,W,1,12,1.0,0.0,M,0.0,M,,*7C
$GPGSA,A,3,01,02,03,04,05,06,07,08,09,10,11,12,1.0,1.0,1.0*30
$GPRMC,172842.195,A,4839.504,N,00202.044,W,038.9,089.4,260618,000.0,W*64
$GPGGA,172843.195,4839.504,N,00202.028,W,1,12,1.0,0.0,M,0.0,M,,*77
$GPGSA,A,3,01,02,03,04,05,06,07,08,09,10,11,12,1.0,1.0,1.0*30
$GPRMC,172843.195,A,4839.504,N,00202.028,W,038.9,089.4,260618,000.0,W*6F
$GPGGA,172844.195,4839.504,N,00202.011,W,1,12,1.0,0.0,M,0.0,M,,*7A
$GPGSA,A,3,01,02,03,04,05,06,07,08,09,10,11,12,1.0,1.0,1.0*30
$GPRMC,172844.195,A,4839.504,N,00202.011,W,038.9,089.4,260618,000.0,W*62
$GPGGA,172845.195,4839.504,N,00201.995,W,1,12,1.0,0.0,M,0.0,M,,*7D
$GPGSA,A,3,01,02,03,04,05,06,07,08,09,10,11,12,1.0,1.0,1.0*30
$GPRMC,172845.195,A,4839.504,N,00201.995,W,038.9,089.4,260618,000.0,W*65
$GPGGA,172846.195,4839.505,N,00201.979,W,1,12,1.0,0.0,M,0.0,M,,*7D
$GPGSA,A,3,01,02,03,04,05,06,07,08,09,10,11,12,1.0,1.0,1.0*30
$GPRMC,172846.195,A,4839.505,N,00201.979,W,038.9,089.4,260618,000.0,W*65
$GPGGA,172847.195,4839.505,N,00201.962,W,1,12,1.0,0.0,M,0.0,M,,*76
$GPGSA,A,3,01,02,03,04,05,06,07,08,09,10,11,12,1.0,1.0,1.0*30
$GPRMC,172847.195,A,4839.505,N,00201.962,W,038.9,089.4,260618,000.0,W*6E
$GPGGA,172848.195,4839.505,N,00201.946,W,1,12,1.0,0.0,M,0.0,M,,*7F
$GPGSA,A,3,01,02,03,04,05,06,07,08,09,10,11,12,1.0,1.0,1.0*30
$GPRMC,172848.195,A,4839.505,N,00201.946,W,038.9,089.4,260618,000.0,W*67
$GPGGA,172849.195,4839.505,N,00201.930,W,1,12,1.0,0.0,M,0.0,M,,*7F
$GPGSA,A,3,01,02,03,04,05,06,07,08,09,10,11,12,1.0,1.0,1.0*30
$GPRMC,172849.195,A,4839.505,N,00201.930,W,038.9,089.4,260618,000.0,W*67
$GPGGA,172850.195,4839.505,N,00201.913,W,1,12,1.0,0.0,M,0.0,M,,*76
$GPGSA,A,3,01,02,03,04,05,06,07,08,09,10,11,12,1.0,1.0,1.0*30
$GPRMC,172850.195,A,4839.505,N,00201.913,W,038.9,089.4,260618,000.0,W*6E
$GPGGA,172851.195,4839.505,N,00201.897,W,1,12,1.0,0.0,M,0.0,M,,*7A
$GPGSA,A,3,01,02,03,04,05,06,07,08,09,10,11,12,1.0,1.0,1.0*30
$GPRMC,172851.195,A,4839.505,N,00201.897,W,038.9,089.4,260618,000.0,W*62
$GPGGA,172852.195,4839.506,N,00201.881,W,1,12,1.0,0.0,M,0.0,M,,*7D
$GPGSA,A,3,01,02,03,04,05,06,07,08,09,10,11,12,1.0,1.0,1.0*30
$GPRMC,172852.195,A,4839.506,N,00201.881,W,038.9,035.6,260618,000.0,W*60
$GPGGA,172853.195,4839.515,N,00201.874,W,1,12,1.0,0.0,M,0.0,M,,*74
$GPGSA,A,3,01,02,03,04,05,06,07,08,09,10,11,12,1.0,1.0,1.0*30
$GPRMC,172853.195,A,4839.515,N,00201.874,W,038.9,035.6,260618,000.0,W*69
$GPGGA,172854.195,4839.525,N,00201.867,W,1,12,1.0,0.0,M,0.0,M,,*72
$GPGSA,A,3,01,02,03,04,05,06,07,08,09,10,11,12,1.0,1.0,1.0*30
$GPRMC,172854.195,A,4839.525,N,00201.867,W,038.9,035.6,260618,000.0,W*6F
$GPGGA,172855.195,4839.535,N,00201.860,W,1,12,1.0,0.0,M,0.0,M,,*75
$GPGSA,A,3,01,02,03,04,05,06,07,08,09,10,11,12,1.0,1.0,1.0*30
$GPRMC,172855.195,A,4839.535,N,00201.860,W,038.9,035.6,260618,000.0,W*68
$GPGGA,172856.195,4839.545,N,00201.853,W,1,12,1.0,0.0,M,0.0,M,,*71
$GPGSA,A,3,01,02,03,04,05,06,07,08,09,10,11,12,1.0,1.0,1.0*30
$GPRMC,172856.195,A,4839.545,N,00201.853,W,038.9,035.6,260618,000.0,W*6C
$GPGGA,172857.195,4839.554,N,00201.846,W,1,12,1.0,0.0,M,0.0,M,,*74
$GPGSA,A,3,01,02,03,04,05,06,07,08,09,10,11,12,1.0,1.0,1.0*30
$GPRMC,172857.195,A,4839.554,N,00201.846,W,038.9,035.6,260618,000.0,W*69
$GPGGA,172858.195,4839.564,N,00201.839,W,1,12,1.0,0.0,M,0.0,M,,*70
$GPGSA,A,3,01,02,03,04,05,06,07,08,09,10,11,12,1.0,1.0,1.0*30
$GPRMC,172858.195,A,4839.564,N,00201.839,W,038.9,035.6,260618,000.0,W*6D
$GPGGA,172859.195,4839.574,N,00201.832,W,1,12,1.0,0.0,M,0.0,M,,*7B
$GPGSA,A,3,01,02,03,04,05,06,07,08,09,10,11,12,1.0,1.0,1.0*30
$GPRMC,172859.195,A,4839.574,N,00201.832,W,038.9,035.6,260618,000.0,W*66
$GPGGA,172900.195,4839.584,N,00201.825,W,1,12,1.0,0.0,M,0.0,M,,*7F
$GPGSA,A,3,01,02,03,04,05,06,07,08,09,10,11,12,1.0,1.0,1.0*30
$GPRMC,172900.195,A,4839.584,N,00201.825,W,038.9,035.6,260618,000.0,W*62
$GPGGA,172901.195,4839.593,N,00201.818,W,1,12,1.0,0.0,M,0.0,M,,*76
$GPGSA,A,3,01,02,03,04,05,06,07,08,09,10,11,12,1.0,1.0,1.0*30
$GPRMC,172901.195,A,4839.593,N,00201.818,W,038.9,035.6,260618,000.0,W*6B
$GPGGA,172902.195,4839.603,N,00201.811,W,1,12,1.0,0.0,M,0.0,M,,*76
$GPGSA,A,3,01,02,03,04,05,06,07,08,09,10,11,12,1.0,1.0,1.0*30
$GPRMC,172902.195,A,4839.603,N,00201.811,W,038.9,035.6,260618,000.0,W*6B
$GPGGA,172903.195,4839.613,N,00201.804,W,1,12,1.0,0.0,M,0.0,M,,*72
$GPGSA,A,3,01,02,03,04,05,06,07,08,09,10,11,12,1.0,1.0,1.0*30
$GPRMC,172903.195,A,4839.613,N,00201.804,W,038.9,035.6,260618,000.0,W*6F
$GPGGA,172904.195,4839.623,N,00201.797,W,1,12,1.0,0.0,M,0.0,M,,*73
$GPGSA,A,3,01,02,03,04,05,06,07,08,09,10,11,12,1.0,1.0,1.0*30
$GPRMC,172904.195,A,4839.623,N,00201.797,W,038.9,035.6,260618,000.0,W*6E
$GPGGA,172905.195,4839.632,N,00201.790,W,1,12,1.0,0.0,M,0.0,M,,*75
$GPGSA,A,3,01,02,03,04,05,06,07,08,09,10,11,12,1.0,1.0,1.0*30
$GPRMC,172905.195,A,4839.632,N,00201.790,W,038.9,035.6,260618,000.0,W*68
$GPGGA,172906.195,4839.642,N,00201.783,W,1,12,1.0,0.0,M,0.0,M,,*73
$GPGSA,A,3,01,02,03,04,05,06,07,08,09,10,11,12,1.0,1.0,1.0*30
$GPRMC,172906.195,A,4839.642,N,00201.783,W,038.9,035.6,260618,000.0,W*6E
$GPGGA,172907.195,4839.652,N,00201.776,W,1,12,1.0,0.0,M,0.0,M,,*79
$GPGSA,A,3,01,02,03,04,05,06,07,08,09,10,11,12,1.0,1.0,1.0*30
$GPRMC,172907.195,A,4839.652,N,00201.776,W,038.9,035.6,260618,000.0,W*64
$GPGGA,172908.195,4839.662,N,00201.769,W,1,12,1.0,0.0,M,0.0,M,,*7B
$GPGSA,A,3,01,02,03,04,05,06,07,08,09,10,11,12,1.0,1.0,1.0*30
$GPRMC,172908.195,A,4839.662,N,00201.769,W,038.9,035.6,260618,000.0,W*66
$GPGGA,172909.195,4839.671,N,00201.762,W,1,12,1.0,0.0,M,0.0,M,,*73
$GPGSA,A,3,01,02,03,04,05,06,07,08,09,10,11,12,1.0,1.0,1.0*30
$GPRMC,172909.195,A,4839.671,N,00201.762,W,038.9,035.6,260618,000.0,W*6E
$GPGGA,172910.195,4839.681,N,00201.755,W,1,12,1.0,0.0,M,0.0,M,,*70
$GPGSA,A,3,01,02,03,04,05,06,07,08,09,10,11,12,1.0,1.0,1.0*30
$GPRMC,172910.195,A,4839.681,N,00201.755,W,038.9,035.6,260618,000.0,W*6D
$GPGGA,172911.195,4839.691,N,00201.748,W,1,12,1.0,0.0,M,0.0,M,,*7C
$GPGSA,A,3,01,02,03,04,05,06,07,08,09,10,11,12,1.0,1.0,1.0*30
$GPRMC,172911.195,A,4839.691,N,00201.748,W,038.9,035.6,260618,000.0,W*61
$GPGGA,172912.195,4839.701,N,00201.741,W,1,12,1.0,0.0,M,0.0,M,,*7E
$GPGSA,A,3,01,02,03,04,05,06,07,08,09,10,11,12,1.0,1.0,1.0*30
$GPRMC,172912.195,A,4839.701,N,00201.741,W,038.9,035.6,260618,000.0,W*63
